[{"stop_id":"ABCH","stop_name":"Abb\u00e9 Ch\u00e9rel","stop_lat":47.21010098,"stop_lon":-1.65221959,"route_short_name":["50","81","91","NBI"]},{"stop_id":"ABDU","stop_name":"Abel Durand","stop_lat":47.22024715,"stop_lon":-1.60339908,"route_short_name":["C20"]},{"stop_id":"ABOL","stop_name":"Adrienne Bolland","stop_lat":47.26791335,"stop_lon":-1.47684627,"route_short_name":["77"]},{"stop_id":"ACHA","stop_name":"Angle Chaillou","stop_lat":47.26986259,"stop_lon":-1.57199068,"route_short_name":["96"]},{"stop_id":"ADBO","stop_name":"Audubon","stop_lat":47.21401606,"stop_lon":-1.72323592,"route_short_name":["91","E1"]},{"stop_id":"ADEL","stop_name":"Aim\u00e9 Delrue","stop_lat":47.20899731,"stop_lon":-1.55009787,"route_short_name":["2","3"]},{"stop_id":"ADPI","stop_name":"Avenue des Pins","stop_lat":47.25367844,"stop_lon":-1.59766118,"route_short_name":["79"]},{"stop_id":"AECL","stop_name":"A\u00e9roclub","stop_lat":47.15944975,"stop_lon":-1.59813406,"route_short_name":["98","NA"]},{"stop_id":"AEPO","stop_name":"D2A - A\u00e9roport","stop_lat":47.15686225,"stop_lon":-1.59741579,"route_short_name":["38","98"]},{"stop_id":"AESP","stop_name":"A\u00e9rospatiale","stop_lat":47.16135928,"stop_lon":-1.58704949,"route_short_name":["38"]},{"stop_id":"AFRA","stop_name":"Anatole France","stop_lat":47.2239258,"stop_lon":-1.57207157,"route_short_name":["26","54"]},{"stop_id":"AGBE","stop_name":"L'Angebert","stop_lat":47.14054089,"stop_lon":-1.45576884,"route_short_name":["47"]},{"stop_id":"AGDR","stop_name":"Angebardi\u00e8re","stop_lat":47.1694326,"stop_lon":-1.50522732,"route_short_name":["47","97"]},{"stop_id":"AGVI","stop_name":"Angevini\u00e8re","stop_lat":47.24593679,"stop_lon":-1.61071504,"route_short_name":["50","54"]},{"stop_id":"AIBU","stop_name":"Airbus","stop_lat":47.15798559,"stop_lon":-1.59089584,"route_short_name":["38"]},{"stop_id":"AIGU","stop_name":"Aiguillon","stop_lat":47.25456226,"stop_lon":-1.49652938,"route_short_name":["80","87"]},{"stop_id":"ALDE","stop_name":"Allende","stop_lat":47.17525341,"stop_lon":-1.62320432,"route_short_name":["36","78","88","E8"]},{"stop_id":"ALNE","stop_name":"Aulne","stop_lat":47.2769373,"stop_lon":-1.63907702,"route_short_name":["79"]},{"stop_id":"AMCA","stop_name":"Armoricaine","stop_lat":47.25827307,"stop_lon":-1.64747915,"route_short_name":["69"]},{"stop_id":"AMER","stop_name":"Am\u00e9ricains","stop_lat":47.23612591,"stop_lon":-1.5682026,"route_short_name":["C2","12"]},{"stop_id":"AMPE","stop_name":"Amp\u00e8re","stop_lat":47.26076619,"stop_lon":-1.55333274,"route_short_name":["66","86","E5"]},{"stop_id":"ANGE","stop_name":"Les Anges","stop_lat":47.27529402,"stop_lon":-1.63710197,"route_short_name":["79"]},{"stop_id":"ANTO","stop_name":"Antons","stop_lat":47.25759558,"stop_lon":-1.62268887,"route_short_name":["89"]},{"stop_id":"APAV","stop_name":"Apave","stop_lat":47.22539944,"stop_lon":-1.64741053,"route_short_name":["93"]},{"stop_id":"APER","stop_name":"Amp\u00e8re","stop_lat":47.30218726,"stop_lon":-1.50789091,"route_short_name":["85"]},{"stop_id":"APRE","stop_name":"Ambroise Par\u00e9","stop_lat":47.22908256,"stop_lon":-1.60841337,"route_short_name":["C6","59"]},{"stop_id":"AQUI","stop_name":"Aquitaine","stop_lat":47.20976487,"stop_lon":-1.61491975,"route_short_name":["23","59","81","91"]},{"stop_id":"ARAG","stop_name":"Arago","stop_lat":47.30355064,"stop_lon":-1.50481141,"route_short_name":["85"]},{"stop_id":"ARBO","stop_name":"Arbois","stop_lat":47.25863331,"stop_lon":-1.58175331,"route_short_name":["59"]},{"stop_id":"ARCA","stop_name":"Arcades","stop_lat":47.21187953,"stop_lon":-1.65288093,"route_short_name":["50","91","NBI"]},{"stop_id":"ARGO","stop_name":"Argonautes","stop_lat":47.30242198,"stop_lon":-1.48182549,"route_short_name":["95"]},{"stop_id":"AROR","stop_name":"Armor","stop_lat":47.23107086,"stop_lon":-1.63183278,"route_short_name":["C3","50","93"]},{"stop_id":"ATAR","stop_name":"Antar\u00e8s","stop_lat":47.28171763,"stop_lon":-1.45970027,"route_short_name":["77"]},{"stop_id":"AUCP","stop_name":"La Chapelle Aulnay","stop_lat":47.30838791,"stop_lon":-1.54329479,"route_short_name":["86"]},{"stop_id":"AUFR","stop_name":"L'Aufr\u00e8re","stop_lat":47.16804829,"stop_lon":-1.52507017,"route_short_name":["33"]},{"stop_id":"AUGE","stop_name":"Aug\u00e9","stop_lat":47.19496578,"stop_lon":-1.51736648,"route_short_name":["30"]},{"stop_id":"AURR","stop_name":"Aurore","stop_lat":47.26539845,"stop_lon":-1.58145537,"route_short_name":["59"]},{"stop_id":"AVEN","stop_name":"Aveneaux","stop_lat":47.23393311,"stop_lon":-1.6297971,"route_short_name":["50"]},{"stop_id":"BABI","stop_name":"Barbini\u00e8re","stop_lat":47.15985795,"stop_lon":-1.48169668,"route_short_name":["47"]},{"stop_id":"BAGA","stop_name":"Bagatelle","stop_lat":47.24354938,"stop_lon":-1.61992939,"route_short_name":["50"]},{"stop_id":"BAIE","stop_name":"Babini\u00e8re","stop_lat":47.25929482,"stop_lon":-1.54621402,"route_short_name":["66"]},{"stop_id":"BAIR","stop_name":"Bel Air","stop_lat":47.22578752,"stop_lon":-1.55964729,"route_short_name":["C2","12","23"]},{"stop_id":"BALI","stop_name":"Balini\u00e8re","stop_lat":47.18598939,"stop_lon":-1.55397615,"route_short_name":["2","3","38"]},{"stop_id":"BANS","stop_name":"Bois des Anses","stop_lat":47.24659645,"stop_lon":-1.49503252,"route_short_name":["C7","87"]},{"stop_id":"BARR","stop_name":"La Barre","stop_lat":47.30881395,"stop_lon":-1.38257905,"route_short_name":["67"]},{"stop_id":"BAST","stop_name":"Bastille","stop_lat":47.1790361,"stop_lon":-1.59693154,"route_short_name":["36","78","88"]},{"stop_id":"BATI","stop_name":"Batignolles","stop_lat":47.25560851,"stop_lon":-1.52993977,"route_short_name":["C6","75"]},{"stop_id":"BAUG","stop_name":"Baugerie","stop_lat":47.20378578,"stop_lon":-1.52024833,"route_short_name":["C9"]},{"stop_id":"BAVO","stop_name":"Basse Or\u00e9vi\u00e8re","stop_lat":47.22040673,"stop_lon":-1.65893741,"route_short_name":["71"]},{"stop_id":"BBON","stop_name":"Boisbonne","stop_lat":47.28686058,"stop_lon":-1.50837641,"route_short_name":["75"]},{"stop_id":"BCES","stop_name":"Bois Cesbron","stop_lat":47.26104953,"stop_lon":-1.62440007,"route_short_name":["89"]},{"stop_id":"BCGA","stop_name":"Bd Charles Gautier","stop_lat":47.22282066,"stop_lon":-1.6071583,"route_short_name":["C3","59"]},{"stop_id":"BCHE","stop_name":"Basse Ch\u00eanaie","stop_lat":47.24147198,"stop_lon":-1.50828681,"route_short_name":["C7","12","87"]},{"stop_id":"BCNY","stop_name":"Bas-Chantenay","stop_lat":47.19821371,"stop_lon":-1.58922286,"route_short_name":["C1","C20","10","81","N2"]},{"stop_id":"BCOI","stop_name":"Branchoire","stop_lat":47.21799656,"stop_lon":-1.60336553,"route_short_name":["C20","23"]},{"stop_id":"BCTT","stop_name":"Blanchet","stop_lat":47.17166881,"stop_lon":-1.54329386,"route_short_name":["C4"]},{"stop_id":"BDAN","stop_name":"Bd des Anglais","stop_lat":47.22671207,"stop_lon":-1.58285255,"route_short_name":["10","54"]},{"stop_id":"BDEL","stop_name":"Baudelaire","stop_lat":47.2336616,"stop_lon":-1.59301502,"route_short_name":["59","89"]},{"stop_id":"BDGL","stop_name":"Bodiguel","stop_lat":47.19847811,"stop_lon":-1.65492143,"route_short_name":["NBI"]},{"stop_id":"BDIN","stop_name":"Bodini\u00e8re","stop_lat":47.21000731,"stop_lon":-1.64190242,"route_short_name":["81","91"]},{"stop_id":"BDLA","stop_name":"Bout des Landes","stop_lat":47.26744242,"stop_lon":-1.5822668,"route_short_name":["59"]},{"stop_id":"BDNN","stop_name":"Bourdonnais","stop_lat":47.20555361,"stop_lon":-1.57998111,"route_short_name":["C1"]},{"stop_id":"BDOU","stop_name":"Bd de Doulon","stop_lat":47.22423423,"stop_lon":-1.52013619,"route_short_name":["1","C3","10"]},{"stop_id":"BDPA","stop_name":"Bout des Pav\u00e9s","stop_lat":47.25269421,"stop_lon":-1.57629132,"route_short_name":["C2","C20","59","86","96"]},{"stop_id":"BDRI","stop_name":"Bourderies","stop_lat":47.20664094,"stop_lon":-1.59565658,"route_short_name":["11"]},{"stop_id":"BDSP","stop_name":"Bd des Sports","stop_lat":47.16559974,"stop_lon":-1.46876821,"route_short_name":["47","97"]},{"stop_id":"BEDR","stop_name":"Bel Endroit","stop_lat":47.15470661,"stop_lon":-1.63396536,"route_short_name":["88"]},{"stop_id":"BEET","stop_name":"Bel \u00catre","stop_lat":47.1794925,"stop_lon":-1.56763864,"route_short_name":["33"]},{"stop_id":"BEGE","stop_name":"Beauger","stop_lat":47.23420845,"stop_lon":-1.5529879,"route_short_name":["10","23"]},{"stop_id":"BEIL","stop_name":"Beillevaire","stop_lat":47.24956252,"stop_lon":-1.60741126,"route_short_name":["50","69","89"]},{"stop_id":"BEMZ","stop_name":"Belges-Montbazon","stop_lat":47.23461282,"stop_lon":-1.540984,"route_short_name":["C6","10","23"]},{"stop_id":"BENA","stop_name":"Beaulieu","stop_lat":47.20411813,"stop_lon":-1.53718842,"route_short_name":["4","26"]},{"stop_id":"BEOC","stop_name":"Belloc","stop_lat":47.20302214,"stop_lon":-1.614554,"route_short_name":["C20","40"]},{"stop_id":"BESS","stop_name":"Bessonneau","stop_lat":47.2146289,"stop_lon":-1.71349968,"route_short_name":["71"]},{"stop_id":"BETO","stop_name":"Belle Etoile","stop_lat":47.28018099,"stop_lon":-1.45165075,"route_short_name":["77"]},{"stop_id":"BEVA","stop_name":"Beauvaiserie","stop_lat":47.13625604,"stop_lon":-1.65437802,"route_short_name":["98"]},{"stop_id":"BGAR","stop_name":"Bonne Garde","stop_lat":47.19702208,"stop_lon":-1.53125706,"route_short_name":["4"]},{"stop_id":"BGCY","stop_name":"Beaugency","stop_lat":47.20379533,"stop_lon":-1.49024992,"route_short_name":["C9"]},{"stop_id":"BGLA","stop_name":"Basse-Goulaine","stop_lat":47.21036202,"stop_lon":-1.46600404,"route_short_name":["C9","60"]},{"stop_id":"BGNN","stop_name":"Bourgonni\u00e8re","stop_lat":47.20665817,"stop_lon":-1.65539946,"route_short_name":["81"]},{"stop_id":"BGOG","stop_name":"Bourgogne","stop_lat":47.24630711,"stop_lon":-1.58931505,"route_short_name":["79"]},{"stop_id":"BGRI","stop_name":"Bougri\u00e8re","stop_lat":47.25501604,"stop_lon":-1.47195795,"route_short_name":["C7","87"]},{"stop_id":"BGSH","stop_name":"Bergerie","stop_lat":47.23794964,"stop_lon":-1.62824352,"route_short_name":["50"]},{"stop_id":"BGTT","stop_name":"Bergeronnettes","stop_lat":47.23959521,"stop_lon":-1.60125384,"route_short_name":["54","59"]},{"stop_id":"BGUT","stop_name":"Louis Breguet","stop_lat":47.27205303,"stop_lon":-1.46602672,"route_short_name":["77"]},{"stop_id":"BGVI","stop_name":"Bougainville","stop_lat":47.19894579,"stop_lon":-1.58359414,"route_short_name":["C20","81"]},{"stop_id":"BHAR","stop_name":"Bois Hardy","stop_lat":47.19827606,"stop_lon":-1.6005922,"route_short_name":["C20","81"]},{"stop_id":"BIAN","stop_name":"Aristide Briand","stop_lat":47.29640065,"stop_lon":-1.49503045,"route_short_name":["75","85"]},{"stop_id":"BIEE","stop_name":"Belle \u00cele","stop_lat":47.22371815,"stop_lon":-1.73164123,"route_short_name":["91"]},{"stop_id":"BIGN","stop_name":"Bignons","stop_lat":47.19981789,"stop_lon":-1.49340125,"route_short_name":["27"]},{"stop_id":"BILE","stop_name":"Basse Ile","stop_lat":47.19567263,"stop_lon":-1.56326908,"route_short_name":["36"]},{"stop_id":"BIND","stop_name":"Basse Indre","stop_lat":47.19786018,"stop_lon":-1.67271604,"route_short_name":["50","81","NBI"]},{"stop_id":"BIOT","stop_name":"Bigeotti\u00e8re","stop_lat":47.25599275,"stop_lon":-1.61952741,"route_short_name":["89"]},{"stop_id":"BJLI","stop_name":"Bois Jaulin","stop_lat":47.17757559,"stop_lon":-1.63685031,"route_short_name":["78"]},{"stop_id":"BJOI","stop_name":"Beaujoire","stop_lat":47.25877238,"stop_lon":-1.52421546,"route_short_name":["1","C6","75"]},{"stop_id":"BLCH","stop_name":"Blancho","stop_lat":47.21355413,"stop_lon":-1.73377668,"route_short_name":["91","E1"]},{"stop_id":"BLDR","stop_name":"Boulodrome","stop_lat":47.25763488,"stop_lon":-1.51513767,"route_short_name":["77"]},{"stop_id":"BLEM","stop_name":"Belem","stop_lat":47.26563709,"stop_lon":-1.45300144,"route_short_name":["87"]},{"stop_id":"BLGO","stop_name":"Berligout","stop_lat":47.21567654,"stop_lon":-1.67841379,"route_short_name":["91"]},{"stop_id":"BLLE","stop_name":"Bellestre","stop_lat":47.14793376,"stop_lon":-1.69406522,"route_short_name":["88"]},{"stop_id":"BLNO","stop_name":"Bois de La No\u00e9","stop_lat":47.14178867,"stop_lon":-1.67142407,"route_short_name":["88"]},{"stop_id":"BLOR","stop_name":"Blordi\u00e8re","stop_lat":47.17991242,"stop_lon":-1.53385179,"route_short_name":["97"]},{"stop_id":"BLSL","stop_name":"Bellevue","stop_lat":47.23541838,"stop_lon":-1.47360365,"route_short_name":["80"]},{"stop_id":"BLUA","stop_name":"B\u00e9louga","stop_lat":47.165802,"stop_lon":-1.58354505,"route_short_name":["38"]},{"stop_id":"BLVU","stop_name":"Mend\u00e8s-France-Bellevue","stop_lat":47.20889862,"stop_lon":-1.61128702,"route_short_name":["1","C20","23","40","59","81","91"]},{"stop_id":"BLZZ","stop_name":"Berlioz","stop_lat":47.23961689,"stop_lon":-1.57149923,"route_short_name":["C2","12"]},{"stop_id":"BNCH","stop_name":"Blancheti\u00e8re","stop_lat":47.2896738,"stop_lon":-1.55609936,"route_short_name":["86","96"]},{"stop_id":"BNDA","stop_name":"Brindais","stop_lat":47.1389786,"stop_lon":-1.71820971,"route_short_name":["98"]},{"stop_id":"BNET","stop_name":"Bignonnet","stop_lat":47.17553725,"stop_lon":-1.46511578,"route_short_name":["42","E4"]},{"stop_id":"BNGL","stop_name":"B\u00e9noni Goullin","stop_lat":47.20166722,"stop_lon":-1.5537944,"route_short_name":["26"]},{"stop_id":"BNLU","stop_name":"B\u00e9n\u00e9lux","stop_lat":47.25411511,"stop_lon":-1.49914288,"route_short_name":["80","87"]},{"stop_id":"BNNO","stop_name":"Bernanos","stop_lat":47.2062028,"stop_lon":-1.61373151,"route_short_name":["C20","40"]},{"stop_id":"BNON","stop_name":"Bignon","stop_lat":47.24908296,"stop_lon":-1.59771985,"route_short_name":["3"]},{"stop_id":"BNTA","stop_name":"BN","stop_lat":47.18431325,"stop_lon":-1.49651937,"route_short_name":["28"]},{"stop_id":"BNVI","stop_name":"Bonneville","stop_lat":47.24386466,"stop_lon":-1.53636465,"route_short_name":["23"]},{"stop_id":"BOCE","stop_name":"Centre de Bouguenais","stop_lat":47.17931447,"stop_lon":-1.62297628,"route_short_name":["36"]},{"stop_id":"BODO","stop_name":"Bourdonni\u00e8res","stop_lat":47.18633909,"stop_lon":-1.52216202,"route_short_name":["4","30","42"]},{"stop_id":"BOFA","stop_name":"Bouffay","stop_lat":47.21449215,"stop_lon":-1.55274419,"route_short_name":["1"]},{"stop_id":"BOGE","stop_name":"Bourgeonni\u00e8re","stop_lat":47.25293409,"stop_lon":-1.56122882,"route_short_name":["2","26","86"]},{"stop_id":"BOLL","stop_name":"Bois Tillac","stop_lat":47.20024463,"stop_lon":-1.77122484,"route_short_name":["E8"]},{"stop_id":"BOND","stop_name":"Bonde","stop_lat":47.22261834,"stop_lon":-1.55214517,"route_short_name":["C6"]},{"stop_id":"BORL","stop_name":"Bourreli\u00e8re","stop_lat":47.1583135,"stop_lon":-1.49835581,"route_short_name":["47"]},{"stop_id":"BOSI","stop_name":"Boissi\u00e8re","stop_lat":47.25494309,"stop_lon":-1.56574073,"route_short_name":["2","96"]},{"stop_id":"BOTI","stop_name":"Bouti\u00e8re","stop_lat":47.15724784,"stop_lon":-1.4680428,"route_short_name":["47"]},{"stop_id":"BOUE","stop_name":"Bio Ouest La\u00ebnnec","stop_lat":47.23270638,"stop_lon":-1.64187191,"route_short_name":["93"]},{"stop_id":"BOVR","stop_name":"Bouvre","stop_lat":47.17821183,"stop_lon":-1.61311926,"route_short_name":["36"]},{"stop_id":"BPTY","stop_name":"Boulay Paty","stop_lat":47.22881389,"stop_lon":-1.57665988,"route_short_name":["10"]},{"stop_id":"BRAG","stop_name":"Bois Raguenet","stop_lat":47.26682671,"stop_lon":-1.60034915,"route_short_name":["79","89"]},{"stop_id":"BRBI","stop_name":"Bois Robillard","stop_lat":47.23568017,"stop_lon":-1.51990372,"route_short_name":["11"]},{"stop_id":"BRCH","stop_name":"Br\u00e9cheti\u00e8re","stop_lat":47.28467406,"stop_lon":-1.50371901,"route_short_name":["95"]},{"stop_id":"BRDI","stop_name":"Briandi\u00e8re","stop_lat":47.18970915,"stop_lon":-1.69205782,"route_short_name":["78"]},{"stop_id":"BRET","stop_name":"Bretonni\u00e8re","stop_lat":47.16651436,"stop_lon":-1.46289052,"route_short_name":["97"]},{"stop_id":"BRGA","stop_name":"Beauregard","stop_lat":47.21011169,"stop_lon":-1.65711114,"route_short_name":["50","91","NBI"]},{"stop_id":"BRIN","stop_name":"Brains","stop_lat":47.17075177,"stop_lon":-1.7188987,"route_short_name":["98"]},{"stop_id":"BRLA","stop_name":"Brouillard","stop_lat":47.27313261,"stop_lon":-1.51493135,"route_short_name":["75"]},{"stop_id":"BRLN","stop_name":"Berlin","stop_lat":47.21648924,"stop_lon":-1.53623353,"route_short_name":["5","C3"]},{"stop_id":"BRNI","stop_name":"Baronni\u00e8re","stop_lat":47.25959399,"stop_lon":-1.60378548,"route_short_name":["50","79"]},{"stop_id":"BROS","stop_name":"Brossais","stop_lat":47.16258113,"stop_lon":-1.58555429,"route_short_name":["38"]},{"stop_id":"BRTA","stop_name":"Bretagne","stop_lat":47.21709924,"stop_lon":-1.55822138,"route_short_name":["3"]},{"stop_id":"BRUN","stop_name":"Bruneau","stop_lat":47.2283306,"stop_lon":-1.56168361,"route_short_name":["C2","12","23"]},{"stop_id":"BRVI","stop_name":"Boris Vian","stop_lat":47.1531628,"stop_lon":-1.68363101,"route_short_name":["88"]},{"stop_id":"BSAN","stop_name":"Bobby Sands","stop_lat":47.22988866,"stop_lon":-1.65303418,"route_short_name":["93"]},{"stop_id":"BSEJ","stop_name":"Beaus\u00e9jour","stop_lat":47.23795164,"stop_lon":-1.58605673,"route_short_name":["3","C20","12","59","79","89"]},{"stop_id":"BSIS","stop_name":"Bossis","stop_lat":47.21258119,"stop_lon":-1.71281589,"route_short_name":["91","E1"]},{"stop_id":"BSNI","stop_name":"Bussonni\u00e8re","stop_lat":47.26902545,"stop_lon":-1.44305373,"route_short_name":["C7","77"]},{"stop_id":"BSOL","stop_name":"Beau Soleil","stop_lat":47.1776619,"stop_lon":-1.64478281,"route_short_name":["78"]},{"stop_id":"BSTI","stop_name":"Basti\u00e8re","stop_lat":47.14834812,"stop_lon":-1.45935784,"route_short_name":["47"]},{"stop_id":"BSYS","stop_name":"Bois St-Lys","stop_lat":47.30043659,"stop_lon":-1.48194835,"route_short_name":["95"]},{"stop_id":"BTAI","stop_name":"Br\u00e9tinais","stop_lat":47.22170065,"stop_lon":-1.66577687,"route_short_name":["71"]},{"stop_id":"BTEC","stop_name":"Bret\u00e9ch\u00e9","stop_lat":47.22525856,"stop_lon":-1.54863519,"route_short_name":["C6"]},{"stop_id":"BTIE","stop_name":"Botti\u00e8re","stop_lat":47.24024313,"stop_lon":-1.51811685,"route_short_name":["11"]},{"stop_id":"BTLE","stop_name":"Bouteillerie","stop_lat":47.22167159,"stop_lon":-1.54282219,"route_short_name":["11","12"]},{"stop_id":"BTRA","stop_name":"Bertrand","stop_lat":47.25712789,"stop_lon":-1.5756898,"route_short_name":["C2"]},{"stop_id":"BUGA","stop_name":"Bugalli\u00e8re","stop_lat":47.25996214,"stop_lon":-1.63768218,"route_short_name":["89"]},{"stop_id":"BULA","stop_name":"Butte des Landes","stop_lat":47.1608075,"stop_lon":-1.49378067,"route_short_name":["47"]},{"stop_id":"BUON","stop_name":"Bougon","stop_lat":47.17424115,"stop_lon":-1.6107129,"route_short_name":["36","78","88"]},{"stop_id":"BUSS","stop_name":"Buisson","stop_lat":47.26062797,"stop_lon":-1.48743916,"route_short_name":["87"]},{"stop_id":"BVDI","stop_name":"Bouvardi\u00e8re","stop_lat":47.23852184,"stop_lon":-1.59839758,"route_short_name":["54","59"]},{"stop_id":"BVER","stop_name":"Bouverni\u00e8re","stop_lat":47.23807988,"stop_lon":-1.61132532,"route_short_name":["59","89"]},{"stop_id":"BVOI","stop_name":"Beauvoir","stop_lat":47.17851239,"stop_lon":-1.6305789,"route_short_name":["36","78"]},{"stop_id":"BYCE","stop_name":"Centre de Bouaye","stop_lat":47.14396012,"stop_lon":-1.6917859,"route_short_name":["88","98"]},{"stop_id":"BYGA","stop_name":"Gare de Bouaye","stop_lat":47.1384035,"stop_lon":-1.68067539,"route_short_name":["88","98"]},{"stop_id":"BYTO","stop_name":"Bouaye Coteaux","stop_lat":47.16477019,"stop_lon":-1.67882328,"route_short_name":["88"]},{"stop_id":"BZAR","stop_name":"Buzardi\u00e8res","stop_lat":47.20723065,"stop_lon":-1.6596718,"route_short_name":["50","91","NBI"]},{"stop_id":"CABR","stop_name":"Cabrol","stop_lat":47.20328093,"stop_lon":-1.58853732,"route_short_name":["10"]},{"stop_id":"CACE","stop_name":"Centre de Carquefou","stop_lat":47.29710622,"stop_lon":-1.49005046,"route_short_name":["75","85","95","E5"]},{"stop_id":"CADO","stop_name":"Cadoire","stop_lat":47.25673385,"stop_lon":-1.4880866,"route_short_name":["80","87"]},{"stop_id":"CALI","stop_name":"Californie","stop_lat":47.19125963,"stop_lon":-1.58448464,"route_short_name":["30","36"]},{"stop_id":"CANC","stop_name":"Canclaux","stop_lat":47.2138367,"stop_lon":-1.57477131,"route_short_name":["C1","C3","23"]},{"stop_id":"CAPE","stop_name":"Capellia","stop_lat":47.27971448,"stop_lon":-1.5549768,"route_short_name":["86"]},{"stop_id":"CARQ","stop_name":"Carquefou","stop_lat":47.3036473,"stop_lon":-1.48562028,"route_short_name":["95","E5"]},{"stop_id":"CAST","stop_name":"Castorama","stop_lat":47.25889176,"stop_lon":-1.50715847,"route_short_name":["77"]},{"stop_id":"CATI","stop_name":"Cartier","stop_lat":47.26816466,"stop_lon":-1.45556222,"route_short_name":["87"]},{"stop_id":"CAUX","stop_name":"Ch\u00e2teau D'Aux","stop_lat":47.18536593,"stop_lon":-1.67455481,"route_short_name":["78","88","E8"]},{"stop_id":"CBAC","stop_name":"Bac de Cou\u00ebron","stop_lat":47.20598337,"stop_lon":-1.75170597,"route_short_name":["71"]},{"stop_id":"CBEA","stop_name":"Charbonneau","stop_lat":47.30068698,"stop_lon":-1.49070416,"route_short_name":["75","95","E5"]},{"stop_id":"CBGE","stop_name":"Chapeau Berger","stop_lat":47.17100393,"stop_lon":-1.46875604,"route_short_name":["28","42","60","97","E4"]},{"stop_id":"CBIN","stop_name":"Corbinerie","stop_lat":47.16143945,"stop_lon":-1.54215663,"route_short_name":["C4"]},{"stop_id":"CBLE","stop_name":"Chemin Bleu","stop_lat":47.17822772,"stop_lon":-1.52501183,"route_short_name":["97"]},{"stop_id":"CBOU","stop_name":"Cou\u00ebron Bougon","stop_lat":47.22508102,"stop_lon":-1.73386051,"route_short_name":["91"]},{"stop_id":"CBRD","stop_name":"Claude Bernard","stop_lat":47.22310732,"stop_lon":-1.61193903,"route_short_name":["C3","59"]},{"stop_id":"CBSS","stop_name":"Cambronne","stop_lat":47.2065888,"stop_lon":-1.50644117,"route_short_name":["C9"]},{"stop_id":"CBTE","stop_name":"Chobl\u00e8terie","stop_lat":47.13620786,"stop_lon":-1.46153344,"route_short_name":["47"]},{"stop_id":"CCDI","stop_name":"Cochardi\u00e8res","stop_lat":47.22994281,"stop_lon":-1.63320361,"route_short_name":["50","93"]},{"stop_id":"CCHA","stop_name":"Couchant","stop_lat":47.27010426,"stop_lon":-1.5139192,"route_short_name":["C6"]},{"stop_id":"CCOU","stop_name":"Champ de Courses","stop_lat":47.24498315,"stop_lon":-1.56197183,"route_short_name":["C20","26"]},{"stop_id":"CCRE","stop_name":"Ch\u00eane Creux","stop_lat":47.17040404,"stop_lon":-1.54874939,"route_short_name":["30"]},{"stop_id":"CDAN","stop_name":"Ch\u00eane des Anglais","stop_lat":47.26152094,"stop_lon":-1.57362988,"route_short_name":["2","C2","96"]},{"stop_id":"CDCO","stop_name":"Cit\u00e9 des Congr\u00e8s","stop_lat":47.21367185,"stop_lon":-1.54501797,"route_short_name":["4"]},{"stop_id":"CDMA","stop_name":"Champ de Manoeuvre","stop_lat":47.27270482,"stop_lon":-1.50074174,"route_short_name":["95"]},{"stop_id":"CELL","stop_name":"Le Cellier","stop_lat":47.32361957,"stop_lon":-1.3477192,"route_short_name":["67"]},{"stop_id":"CFOI","stop_name":"Champ de Foire","stop_lat":47.12461313,"stop_lon":-1.61853879,"route_short_name":["98"]},{"stop_id":"CGAU","stop_name":"Cimeti\u00e8re de la Gaudini\u00e8re","stop_lat":47.24292433,"stop_lon":-1.58285056,"route_short_name":["C20","59"]},{"stop_id":"CGLA","stop_name":"Ch\u00eane Gala","stop_lat":47.1831538,"stop_lon":-1.53923829,"route_short_name":["97"]},{"stop_id":"CHAB","stop_name":"Chabossi\u00e8re","stop_lat":47.21544882,"stop_lon":-1.68236264,"route_short_name":["91","E1","NBI"]},{"stop_id":"CHBE","stop_name":"Chambelles","stop_lat":47.23162967,"stop_lon":-1.53058634,"route_short_name":["10"]},{"stop_id":"CHER","stop_name":"La Coch\u00e8re","stop_lat":47.20044448,"stop_lon":-1.77824516,"route_short_name":["E8"]},{"stop_id":"CHFL","stop_name":"Champ Fleuri","stop_lat":47.14383024,"stop_lon":-1.5247766,"route_short_name":["C4"]},{"stop_id":"CHGN","stop_name":"Ch\u00e2taigniers","stop_lat":47.22215639,"stop_lon":-1.60287866,"route_short_name":["C3","C20"]},{"stop_id":"CHLI","stop_name":"Choli\u00e8re","stop_lat":47.25102707,"stop_lon":-1.60672562,"route_short_name":["50"]},{"stop_id":"CHME","stop_name":"Charmes","stop_lat":47.19080195,"stop_lon":-1.46104727,"route_short_name":["27"]},{"stop_id":"CHNI","stop_name":"Charbonni\u00e8re","stop_lat":47.26387299,"stop_lon":-1.64181008,"route_short_name":["89"]},{"stop_id":"CHOC","stop_name":"Chocolaterie","stop_lat":47.24289453,"stop_lon":-1.52769792,"route_short_name":["C1"]},{"stop_id":"CHPO","stop_name":"Champonni\u00e8re","stop_lat":47.16365142,"stop_lon":-1.50573699,"route_short_name":["47"]},{"stop_id":"CHRE","stop_name":"Chal\u00e2tres","stop_lat":47.23183531,"stop_lon":-1.53787365,"route_short_name":["C1"]},{"stop_id":"CHSS","stop_name":"Chauss\u00e9e","stop_lat":47.17664867,"stop_lon":-1.52106736,"route_short_name":["97"]},{"stop_id":"CHTE","stop_name":"Ch\u00e2telets","stop_lat":47.19725099,"stop_lon":-1.54052347,"route_short_name":["C4","C9","27","28","36","38"]},{"stop_id":"CHZY","stop_name":"Chanzy","stop_lat":47.22412069,"stop_lon":-1.54498293,"route_short_name":["C1"]},{"stop_id":"CJOS","stop_name":"Cimeti\u00e8re de St-Joseph-de-Porterie","stop_lat":47.26813697,"stop_lon":-1.52158403,"route_short_name":["75"]},{"stop_id":"CLAM","stop_name":"Clos Ami","stop_lat":47.21031879,"stop_lon":-1.6563335,"route_short_name":["50","91","NBI"]},{"stop_id":"CLBO","stop_name":"Clos Bonnet","stop_lat":47.18917694,"stop_lon":-1.56358856,"route_short_name":["97"]},{"stop_id":"CLET","stop_name":"Cl\u00e9tras","stop_lat":47.25552965,"stop_lon":-1.51075294,"route_short_name":["80","85"]},{"stop_id":"CLGE","stop_name":"Chalonges","stop_lat":47.18916104,"stop_lon":-1.47255701,"route_short_name":["C9","27","60"]},{"stop_id":"CLMO","stop_name":"Cimeti\u00e8re La Montagne","stop_lat":47.18729268,"stop_lon":-1.68645864,"route_short_name":["78"]},{"stop_id":"CLNA","stop_name":"Colonac","stop_lat":47.22412843,"stop_lon":-1.60315611,"route_short_name":["C20"]},{"stop_id":"CLOT","stop_name":"Clotais","stop_lat":47.19302513,"stop_lon":-1.71820783,"route_short_name":["78"]},{"stop_id":"CLRO","stop_name":"Clos Roux","stop_lat":47.19812466,"stop_lon":-1.74978398,"route_short_name":["78"]},{"stop_id":"CLSE","stop_name":"Closeaux","stop_lat":47.23995337,"stop_lon":-1.62759856,"route_short_name":["50"]},{"stop_id":"CLTT","stop_name":"Ch\u00e2let","stop_lat":47.22936286,"stop_lon":-1.54443781,"route_short_name":["C6"]},{"stop_id":"CLUE","stop_name":"Clouet","stop_lat":47.16753189,"stop_lon":-1.51090184,"route_short_name":["47"]},{"stop_id":"CLZE","stop_name":"Clouzeaux","stop_lat":47.17930576,"stop_lon":-1.49272643,"route_short_name":["E4"]},{"stop_id":"CMAR","stop_name":"Cirque - Marais","stop_lat":47.21803334,"stop_lon":-1.55723184,"route_short_name":["C2","12","23"]},{"stop_id":"CMCI","stop_name":"Cl\u00e9menci\u00e8re","stop_lat":47.26944711,"stop_lon":-1.43567411,"route_short_name":["C7","67"]},{"stop_id":"CMLL","stop_name":"Charmille","stop_lat":47.25717693,"stop_lon":-1.60598862,"route_short_name":["50","79"]},{"stop_id":"CMNE","stop_name":"Commune 1871","stop_lat":47.19933781,"stop_lon":-1.49970975,"route_short_name":["27"]},{"stop_id":"CMOU","stop_name":"Clos du Moulin","stop_lat":47.14512195,"stop_lon":-1.52117338,"route_short_name":["C4"]},{"stop_id":"CMRA","stop_name":"Cormerais","stop_lat":47.19475301,"stop_lon":-1.62715773,"route_short_name":["81"]},{"stop_id":"CMSY","stop_name":"Carri\u00e8re Misery","stop_lat":47.19978561,"stop_lon":-1.58008758,"route_short_name":["C20","81"]},{"stop_id":"CMUS","stop_name":"Camus","stop_lat":47.21921361,"stop_lon":-1.57291706,"route_short_name":["C6"]},{"stop_id":"CNAV","stop_name":"Chantiers Navals","stop_lat":47.20884925,"stop_lon":-1.5677981,"route_short_name":["1","11"]},{"stop_id":"CNGO","stop_name":"Congo","stop_lat":47.23965236,"stop_lon":-1.6101189,"route_short_name":["59","89"]},{"stop_id":"CNLA","stop_name":"Canal","stop_lat":47.216118,"stop_lon":-1.47170042,"route_short_name":["C9"]},{"stop_id":"CNON","stop_name":"Chinon","stop_lat":47.27416824,"stop_lon":-1.42899425,"route_short_name":["67"]},{"stop_id":"CNTR","stop_name":"Centaure","stop_lat":47.1700726,"stop_lon":-1.62717988,"route_short_name":["36"]},{"stop_id":"COAY","stop_name":"Corlay","stop_lat":47.20794884,"stop_lon":-1.64412854,"route_short_name":["81"]},{"stop_id":"COCH","stop_name":"Cochard","stop_lat":47.22402387,"stop_lon":-1.55052864,"route_short_name":["C6"]},{"stop_id":"COET","stop_name":"Les Cou\u00ebts","stop_lat":47.18064454,"stop_lon":-1.58674555,"route_short_name":["2","3"]},{"stop_id":"COHO","stop_name":"Chohonni\u00e8re","stop_lat":47.26319622,"stop_lon":-1.4860353,"route_short_name":["87"]},{"stop_id":"COLI","stop_name":"Colini\u00e8re","stop_lat":47.23588381,"stop_lon":-1.508414,"route_short_name":["12","87"]},{"stop_id":"COMM","stop_name":"Commerce","stop_lat":47.21337472,"stop_lon":-1.55649624,"route_short_name":["1","2","3","C2","C3","11","26","54"]},{"stop_id":"CONI","stop_name":"Corniche","stop_lat":47.25287901,"stop_lon":-1.59469212,"route_short_name":["79"]},{"stop_id":"CORA","stop_name":"Conraie","stop_lat":47.2608437,"stop_lon":-1.58826584,"route_short_name":["50","89"]},{"stop_id":"COST","stop_name":"Cousteau","stop_lat":47.24059032,"stop_lon":-1.51311652,"route_short_name":["C7"]},{"stop_id":"COTA","stop_name":"Coutanci\u00e8re","stop_lat":47.30620126,"stop_lon":-1.56008462,"route_short_name":["96"]},{"stop_id":"COUD","stop_name":"Coudray","stop_lat":47.23213372,"stop_lon":-1.542391,"route_short_name":["C6"]},{"stop_id":"CP3R","stop_name":"Chapelles","stop_lat":47.16354476,"stop_lon":-1.53847942,"route_short_name":["33"]},{"stop_id":"CP4L","stop_name":"Chapelle La\u00ebnnec","stop_lat":47.23536751,"stop_lon":-1.63783808,"route_short_name":["93"]},{"stop_id":"CPER","stop_name":"Copernic","stop_lat":47.21489962,"stop_lon":-1.56467059,"route_short_name":["C1","C3","23"]},{"stop_id":"CPGT","stop_name":"Capitaine Grant","stop_lat":47.26183568,"stop_lon":-1.66944367,"route_short_name":["69"]},{"stop_id":"CPRE","stop_name":"Chaupi\u00e8res","stop_lat":47.24317344,"stop_lon":-1.49505175,"route_short_name":["87"]},{"stop_id":"CPTE","stop_name":"Chapelet","stop_lat":47.13210719,"stop_lon":-1.64152997,"route_short_name":["98"]},{"stop_id":"CQGU","stop_name":"Chat-qui-Guette","stop_lat":47.19196413,"stop_lon":-1.69711679,"route_short_name":["78","E8"]},{"stop_id":"CQLU","stop_name":"Coqueluchon","stop_lat":47.18410051,"stop_lon":-1.47034749,"route_short_name":["42"]},{"stop_id":"CRAI","stop_name":"Clairais","stop_lat":47.27556478,"stop_lon":-1.43862013,"route_short_name":["C7"]},{"stop_id":"CRBE","stop_name":"Corberie","stop_lat":47.15205072,"stop_lon":-1.5240489,"route_short_name":["C4"]},{"stop_id":"CRCE","stop_name":"Courocerie","stop_lat":47.2517659,"stop_lon":-1.49937116,"route_short_name":["80","87"]},{"stop_id":"CREZ","stop_name":"Ch\u00e2teau de Rez\u00e9","stop_lat":47.18480505,"stop_lon":-1.559703,"route_short_name":["2","3"]},{"stop_id":"CRME","stop_name":"Cr\u00e9metterie","stop_lat":47.21827436,"stop_lon":-1.60840954,"route_short_name":["23"]},{"stop_id":"CRNO","stop_name":"Corbon","stop_lat":47.21332134,"stop_lon":-1.46092737,"route_short_name":["C9"]},{"stop_id":"CROU","stop_name":"Chemin Rouge","stop_lat":47.25169783,"stop_lon":-1.51761998,"route_short_name":["77","80","85"]},{"stop_id":"CRPO","stop_name":"Criport","stop_lat":47.15831755,"stop_lon":-1.50363779,"route_short_name":["47"]},{"stop_id":"CRQU","stop_name":"Place du Cirque","stop_lat":47.2169641,"stop_lon":-1.55688963,"route_short_name":["2","C1","C2","C6","11","23"]},{"stop_id":"CRRO","stop_name":"Claire Roman","stop_lat":47.15472868,"stop_lon":-1.59131723,"route_short_name":["38"]},{"stop_id":"CRSA","stop_name":"Croissant","stop_lat":47.24045679,"stop_lon":-1.53056344,"route_short_name":["C1"]},{"stop_id":"CRTI","stop_name":"Cr\u00e9tini\u00e8res","stop_lat":47.2765335,"stop_lon":-1.55315709,"route_short_name":["86"]},{"stop_id":"CRVA","stop_name":"Cravate","stop_lat":47.24336474,"stop_lon":-1.58843772,"route_short_name":["79"]},{"stop_id":"CSAY","stop_name":"Chassay","stop_lat":47.24585103,"stop_lon":-1.48492755,"route_short_name":["80"]},{"stop_id":"CSCL","stop_name":"Cimeti\u00e8re St-Clair","stop_lat":47.2166407,"stop_lon":-1.59295454,"route_short_name":["23"]},{"stop_id":"CSER","stop_name":"La Chapelle-sur-Erdre","stop_lat":47.29942423,"stop_lon":-1.55005779,"route_short_name":["86"]},{"stop_id":"CSGR","stop_name":"Cassegrain","stop_lat":47.18778887,"stop_lon":-1.48950197,"route_short_name":["42"]},{"stop_id":"CSHB","stop_name":"Carri\u00e8res","stop_lat":47.20824804,"stop_lon":-1.63807066,"route_short_name":["91"]},{"stop_id":"CSIB","stop_name":"Clos Siban","stop_lat":47.21021181,"stop_lon":-1.64641182,"route_short_name":["91"]},{"stop_id":"CSMP","stop_name":"Casimir P\u00e9rier","stop_lat":47.23198412,"stop_lon":-1.56816468,"route_short_name":["10","26"]},{"stop_id":"CSRI","stop_name":"Classerie","stop_lat":47.16808464,"stop_lon":-1.55875054,"route_short_name":["33"]},{"stop_id":"CSTE","stop_name":"Casterneau","stop_lat":47.22714308,"stop_lon":-1.53277404,"route_short_name":["11","12"]},{"stop_id":"CSVA","stop_name":"Conservatoire","stop_lat":47.2070496,"stop_lon":-1.53303919,"route_short_name":["5","26"]},{"stop_id":"CTBO","stop_name":"Coteaux","stop_lat":47.18437689,"stop_lon":-1.66932799,"route_short_name":["78"]},{"stop_id":"CTEU","stop_name":"Caboteurs","stop_lat":47.18638564,"stop_lon":-1.58743057,"route_short_name":["36"]},{"stop_id":"CTIE","stop_name":"Ch\u00e2telier","stop_lat":47.18484027,"stop_lon":-1.59313035,"route_short_name":["36"]},{"stop_id":"CTLI","stop_name":"Courteline","stop_lat":47.23657256,"stop_lon":-1.58688127,"route_short_name":["C20"]},{"stop_id":"CTNS","stop_name":"Carterons","stop_lat":47.21822349,"stop_lon":-1.73928815,"route_short_name":["71"]},{"stop_id":"CTOR","stop_name":"Clos Toreau","stop_lat":47.19439301,"stop_lon":-1.52908506,"route_short_name":["4"]},{"stop_id":"CTRE","stop_name":"Chantrerie","stop_lat":47.28171379,"stop_lon":-1.51687336,"route_short_name":["C6","75"]},{"stop_id":"CTYY","stop_name":"Coty","stop_lat":47.24898498,"stop_lon":-1.48819363,"route_short_name":["C7"]},{"stop_id":"CUGA","stop_name":"Gare de Cou\u00ebron","stop_lat":47.22181322,"stop_lon":-1.72435658,"route_short_name":["91"]},{"stop_id":"CUIE","stop_name":"Chausserie","stop_lat":47.14946482,"stop_lon":-1.70434728,"route_short_name":["98"]},{"stop_id":"CUPI","stop_name":"Coupries","stop_lat":47.19158591,"stop_lon":-1.46731259,"route_short_name":["60"]},{"stop_id":"CURI","stop_name":"Curie","stop_lat":47.19046894,"stop_lon":-1.48744749,"route_short_name":["27"]},{"stop_id":"CUVI","stop_name":"Cuvier","stop_lat":47.21046286,"stop_lon":-1.57333508,"route_short_name":["11"]},{"stop_id":"CVBL","stop_name":"Cheveux Blancs","stop_lat":47.26545709,"stop_lon":-1.63504746,"route_short_name":["89"]},{"stop_id":"CVDO","stop_name":"Cimeti\u00e8re de Vieux Doulon","stop_lat":47.23849235,"stop_lon":-1.50040266,"route_short_name":["87"]},{"stop_id":"CVER","stop_name":"Chapeau Verni","stop_lat":47.18903931,"stop_lon":-1.50874841,"route_short_name":["4","42"]},{"stop_id":"CVLE","stop_name":"Chevalerie","stop_lat":47.2522148,"stop_lon":-1.54517072,"route_short_name":["26"]},{"stop_id":"CVNI","stop_name":"Chauvini\u00e8re","stop_lat":47.25157511,"stop_lon":-1.57210879,"route_short_name":["C20"]},{"stop_id":"CVRN","stop_name":"Cheverny","stop_lat":47.24613988,"stop_lon":-1.60477798,"route_short_name":["50","89"]},{"stop_id":"CVTI","stop_name":"Convention","stop_lat":47.21145223,"stop_lon":-1.58662535,"route_short_name":["10","11"]},{"stop_id":"CXFS","stop_name":"Croix des Fosses","stop_lat":47.21251409,"stop_lon":-1.46628916,"route_short_name":["60"]},{"stop_id":"CZIN","stop_name":"Ch\u00e9zine","stop_lat":47.23372865,"stop_lon":-1.59897057,"route_short_name":["89"]},{"stop_id":"DAKK","stop_name":"Danemark","stop_lat":47.26097867,"stop_lon":-1.49857702,"route_short_name":["77","85"]},{"stop_id":"DALB","stop_name":"Dalby","stop_lat":47.22564089,"stop_lon":-1.5292279,"route_short_name":["11","12"]},{"stop_id":"DANU","stop_name":"Danube","stop_lat":47.30455016,"stop_lon":-1.50183802,"route_short_name":["85"]},{"stop_id":"DAVU","stop_name":"Davum","stop_lat":47.26475017,"stop_lon":-1.49620153,"route_short_name":["77"]},{"stop_id":"DAYA","stop_name":"Dayat","stop_lat":47.20086884,"stop_lon":-1.67426307,"route_short_name":["50","81"]},{"stop_id":"DCAN","stop_name":"Duchesse Anne-Ch\u00e2teau","stop_lat":47.21620187,"stop_lon":-1.54744873,"route_short_name":["1","4"]},{"stop_id":"DCFF","stop_name":"Du Chaffault","stop_lat":47.20764712,"stop_lon":-1.58198473,"route_short_name":["1"]},{"stop_id":"DEMO","stop_name":"Desmoulins","stop_lat":47.23347087,"stop_lon":-1.52133117,"route_short_name":["11"]},{"stop_id":"DERV","stop_name":"Dervalli\u00e8res","stop_lat":47.22889513,"stop_lon":-1.59808602,"route_short_name":["C6","C20"]},{"stop_id":"DGLE","stop_name":"De Gaulle","stop_lat":47.3008626,"stop_lon":-1.55281042,"route_short_name":["96"]},{"stop_id":"DIAN","stop_name":"Diane","stop_lat":47.23966265,"stop_lon":-1.57811502,"route_short_name":["12"]},{"stop_id":"DIDE","stop_name":"Espace Diderot","stop_lat":47.18451832,"stop_lon":-1.56285281,"route_short_name":["2","3","30","33"]},{"stop_id":"DLCR","stop_name":"Delacroix","stop_lat":47.22360815,"stop_lon":-1.58936784,"route_short_name":["C3"]},{"stop_id":"DLLE","stop_name":"Drillet","stop_lat":47.2348355,"stop_lon":-1.66623091,"route_short_name":["93"]},{"stop_id":"DLME","stop_name":"Delorme","stop_lat":47.2157127,"stop_lon":-1.56459769,"route_short_name":["C6","26","54"]},{"stop_id":"DMAI","stop_name":"Domaine","stop_lat":47.17844857,"stop_lon":-1.46968144,"route_short_name":["42","E4"]},{"stop_id":"DMUR","stop_name":"Dumont d'Urville","stop_lat":47.22587166,"stop_lon":-1.63633918,"route_short_name":["50","93"]},{"stop_id":"DNAI","stop_name":"Danais","stop_lat":47.21368938,"stop_lon":-1.58969749,"route_short_name":["23"]},{"stop_id":"DOLT","stop_name":"Dolto","stop_lat":47.21650999,"stop_lon":-1.63617274,"route_short_name":["71"]},{"stop_id":"DOME","stop_name":"Doumer","stop_lat":47.22182421,"stop_lon":-1.57826385,"route_short_name":["C6"]},{"stop_id":"DOTT","stop_name":"Douett\u00e9e","stop_lat":47.20773331,"stop_lon":-1.49912218,"route_short_name":["C9","30"]},{"stop_id":"DPBL","stop_name":"B\u00eale","stop_lat":47.26490018,"stop_lon":-1.51063358,"route_short_name":["95"]},{"stop_id":"DPTE","stop_name":"D\u00e9port\u00e9s","stop_lat":47.19715306,"stop_lon":-1.49228559,"route_short_name":["27"]},{"stop_id":"DPVT","stop_name":"Vertonne","stop_lat":47.18708768,"stop_lon":-1.49434,"route_short_name":["28"]},{"stop_id":"DRAD","stop_name":"D\u00e9sirade","stop_lat":47.27784786,"stop_lon":-1.48417198,"route_short_name":["85"]},{"stop_id":"DRID","stop_name":"Druides","stop_lat":47.23861884,"stop_lon":-1.50742048,"route_short_name":["12","87"]},{"stop_id":"DRLA","stop_name":"Drouillard","stop_lat":47.18013487,"stop_lon":-1.67733351,"route_short_name":["88"]},{"stop_id":"DROI","stop_name":"Droiti\u00e8re","stop_lat":47.30794338,"stop_lon":-1.37325031,"route_short_name":["67"]},{"stop_id":"DSAI","stop_name":"Desaix","stop_lat":47.22754712,"stop_lon":-1.5421906,"route_short_name":["C1"]},{"stop_id":"DUKA","stop_name":"Dukas","stop_lat":47.23522868,"stop_lon":-1.6025192,"route_short_name":["89"]},{"stop_id":"DUNA","stop_name":"Dunant","stop_lat":47.24391081,"stop_lon":-1.52155536,"route_short_name":["11"]},{"stop_id":"DUTR","stop_name":"Duguay Trouin","stop_lat":47.22429674,"stop_lon":-1.61665433,"route_short_name":["C3"]},{"stop_id":"EBCA","stop_name":"Embarcad\u00e8re","stop_lat":47.19408468,"stop_lon":-1.64653306,"route_short_name":["81","NBI"]},{"stop_id":"ECBU","stop_name":"\u00c9cobuts","stop_lat":47.19393956,"stop_lon":-1.50764703,"route_short_name":["28"]},{"stop_id":"ECHO","stop_name":"\u00c9choppes","stop_lat":47.14306629,"stop_lon":-1.68643787,"route_short_name":["88","98"]},{"stop_id":"ECOS","stop_name":"\u00c9cosse","stop_lat":47.21511407,"stop_lon":-1.52622014,"route_short_name":["C3"]},{"stop_id":"ECSU","stop_name":"\u00c9cole Centrale-Audencia","stop_lat":47.24812474,"stop_lon":-1.55161943,"route_short_name":["2","C20","66","75","80","E5"]},{"stop_id":"ECTE","stop_name":"Enchanterie","stop_lat":47.23061054,"stop_lon":-1.52337263,"route_short_name":["11"]},{"stop_id":"EDIP","stop_name":"Edith Piaf","stop_lat":47.22827482,"stop_lon":-1.62408849,"route_short_name":["C3"]},{"stop_id":"EDNA","stop_name":"\u00c9dit de Nantes","stop_lat":47.21441073,"stop_lon":-1.56846833,"route_short_name":["C1","C3","23"]},{"stop_id":"EDRE","stop_name":"Erdreau","stop_lat":47.29114983,"stop_lon":-1.50127235,"route_short_name":["75","E5"]},{"stop_id":"EGAN","stop_name":"Eglantine","stop_lat":47.23517102,"stop_lon":-1.58836532,"route_short_name":["C20"]},{"stop_id":"EGLI","stop_name":"Egalit\u00e9","stop_lat":47.20939483,"stop_lon":-1.58885365,"route_short_name":["1","10","11"]},{"stop_id":"EINS","stop_name":"Einstein","stop_lat":47.26413048,"stop_lon":-1.57104228,"route_short_name":["50"]},{"stop_id":"ELIS","stop_name":"Eglise","stop_lat":47.16854462,"stop_lon":-1.72018447,"route_short_name":["98"]},{"stop_id":"EMBE","stop_name":"Embellie","stop_lat":47.26545322,"stop_lon":-1.51834723,"route_short_name":["C6"]},{"stop_id":"ENCO","stop_name":"Ennerie - Corbon","stop_lat":47.14187671,"stop_lon":-1.70496308,"route_short_name":["98"]},{"stop_id":"EPEL","stop_name":"\u00c9coles","stop_lat":47.19752281,"stop_lon":-1.7591214,"route_short_name":["78"]},{"stop_id":"EPIN","stop_name":"\u00c9pinais","stop_lat":47.13623648,"stop_lon":-1.61055297,"route_short_name":["98"]},{"stop_id":"EPYY","stop_name":"Epinay","stop_lat":47.29234637,"stop_lon":-1.48692971,"route_short_name":["85"]},{"stop_id":"EQPE","stop_name":"\u00c9quipement","stop_lat":47.22381394,"stop_lon":-1.57536864,"route_short_name":["54"]},{"stop_id":"ERDI","stop_name":"\u00c9raudi\u00e8re","stop_lat":47.24264226,"stop_lon":-1.53521809,"route_short_name":["C6","23"]},{"stop_id":"ESCA","stop_name":"Escall","stop_lat":47.19939893,"stop_lon":-1.503282,"route_short_name":["27"]},{"stop_id":"ESOR","stop_name":"\u00c9coles","stop_lat":47.14544898,"stop_lon":-1.52753353,"route_short_name":["C4"]},{"stop_id":"ESUE","stop_name":"Eug\u00e8ne Sue","stop_lat":47.23328862,"stop_lon":-1.59602902,"route_short_name":["89"]},{"stop_id":"EUCA","stop_name":"Europe","stop_lat":47.26016529,"stop_lon":-1.50407499,"route_short_name":["77"]},{"stop_id":"EUVE","stop_name":"Europe","stop_lat":47.17300614,"stop_lon":-1.47629459,"route_short_name":["28"]},{"stop_id":"EVET","stop_name":"\u00c9cole V\u00e9t\u00e9rinaire","stop_lat":47.29095344,"stop_lon":-1.52336413,"route_short_name":["75"]},{"stop_id":"FACU","stop_name":"Facult\u00e9s","stop_lat":47.24682767,"stop_lon":-1.55536079,"route_short_name":["2","75"]},{"stop_id":"FADI","stop_name":"Fardi\u00e8re","stop_lat":47.19797882,"stop_lon":-1.60664917,"route_short_name":["C20","81","E1"]},{"stop_id":"FALI","stop_name":"Falli\u00e8res","stop_lat":47.22493741,"stop_lon":-1.57941718,"route_short_name":["54"]},{"stop_id":"FANE","stop_name":"Faneurs","stop_lat":47.21377376,"stop_lon":-1.70193386,"route_short_name":["71","91"]},{"stop_id":"FATA","stop_name":"Fantaisie","stop_lat":47.25283697,"stop_lon":-1.56942314,"route_short_name":["86","96"]},{"stop_id":"FAUV","stop_name":"Fauveli\u00e8re","stop_lat":47.28299968,"stop_lon":-1.50531922,"route_short_name":["95"]},{"stop_id":"FBAU","stop_name":"Fran\u00e7ois Baudry","stop_lat":47.26228759,"stop_lon":-1.67199149,"route_short_name":["69"]},{"stop_id":"FBLA","stop_name":"Fresche Blanc","stop_lat":47.25290149,"stop_lon":-1.55686119,"route_short_name":["26","86"]},{"stop_id":"FDDR","stop_name":"Fac de Droit","stop_lat":47.24369562,"stop_lon":-1.55209091,"route_short_name":["80","E5"]},{"stop_id":"FDLE","stop_name":"Fac de Lettres","stop_lat":47.24541603,"stop_lon":-1.55181925,"route_short_name":["C20","80","E5"]},{"stop_id":"FERI","stop_name":"Ferri\u00e8re","stop_lat":47.24445633,"stop_lon":-1.5907663,"route_short_name":["3","79"]},{"stop_id":"FFAU","stop_name":"F\u00e9lix Faure","stop_lat":47.22698903,"stop_lon":-1.56938663,"route_short_name":["3","26"]},{"stop_id":"FGRI","stop_name":"Fief Gu\u00e9rin","stop_lat":47.14388036,"stop_lon":-1.66049085,"route_short_name":["88"]},{"stop_id":"FLEU","stop_name":"Fleuriaye","stop_lat":47.29920327,"stop_lon":-1.5001299,"route_short_name":["75","85","E5"]},{"stop_id":"FLRI","stop_name":"Floride","stop_lat":47.21348186,"stop_lon":-1.60369399,"route_short_name":["11"]},{"stop_id":"FLTR","stop_name":"Flora Tristan","stop_lat":47.17633201,"stop_lon":-1.54389596,"route_short_name":["C4"]},{"stop_id":"FLUR","stop_name":"Fleurs","stop_lat":47.21590864,"stop_lon":-1.71809144,"route_short_name":["71"]},{"stop_id":"FMIT","stop_name":"Fran\u00e7ois Mitterrand","stop_lat":47.22210178,"stop_lon":-1.63857119,"route_short_name":["1","50","71","91","93"]},{"stop_id":"FNLL","stop_name":"Fresnel","stop_lat":47.24286067,"stop_lon":-1.52333113,"route_short_name":["11"]},{"stop_id":"FOCH","stop_name":"Foch-Cath\u00e9drale","stop_lat":47.21879945,"stop_lon":-1.55054562,"route_short_name":["4","C1","C6","11","12"]},{"stop_id":"FOND","stop_name":"Fonderies","stop_lat":47.20641203,"stop_lon":-1.54396268,"route_short_name":["5"]},{"stop_id":"FORU","stop_name":"Forum d'Orvault","stop_lat":47.25443054,"stop_lon":-1.61517856,"route_short_name":["89"]},{"stop_id":"FOTA","stop_name":"Fontaine","stop_lat":47.20554189,"stop_lon":-1.4891854,"route_short_name":["C9"]},{"stop_id":"FOUL","stop_name":"Foulquier","stop_lat":47.30972771,"stop_lon":-1.54630536,"route_short_name":["86"]},{"stop_id":"FRAC","stop_name":"Frachon","stop_lat":47.2191117,"stop_lon":-1.62076603,"route_short_name":["1"]},{"stop_id":"FRBA","stop_name":"Fr\u00e9baudi\u00e8re","stop_lat":47.27223426,"stop_lon":-1.62655239,"route_short_name":["79"]},{"stop_id":"FRCH","stop_name":"Fra\u00eeches","stop_lat":47.17455019,"stop_lon":-1.48948053,"route_short_name":["28"]},{"stop_id":"FRET","stop_name":"For\u00eat","stop_lat":47.24434768,"stop_lon":-1.57541602,"route_short_name":["C2"]},{"stop_id":"FRGA","stop_name":"Fr\u00e9gate","stop_lat":47.23524567,"stop_lon":-1.47610372,"route_short_name":["80"]},{"stop_id":"FRII","stop_name":"Fran\u00e7ois II","stop_lat":47.21848493,"stop_lon":-1.68311956,"route_short_name":["71"]},{"stop_id":"FRKL","stop_name":"Franklin","stop_lat":47.22590418,"stop_lon":-1.61968194,"route_short_name":["C3"]},{"stop_id":"FRMO","stop_name":"Fr\u00e9moire","stop_lat":47.15328061,"stop_lon":-1.4763428,"route_short_name":["47"]},{"stop_id":"FRNE","stop_name":"Fr\u00eanes","stop_lat":47.2532385,"stop_lon":-1.487572,"route_short_name":["80"]},{"stop_id":"FRON","stop_name":"Fr\u00eane Rond","stop_lat":47.19026089,"stop_lon":-1.4964168,"route_short_name":["28"]},{"stop_id":"FRRR","stop_name":"Fr\u00e8res Rousseau","stop_lat":47.12616001,"stop_lon":-1.62855094,"route_short_name":["98"]},{"stop_id":"FTAB","stop_name":"F\u00e9lix Tableau","stop_lat":47.18801317,"stop_lon":-1.54738515,"route_short_name":["C4","97"]},{"stop_id":"FTDO","stop_name":"Fructidor","stop_lat":47.24010857,"stop_lon":-1.55963273,"route_short_name":["26"]},{"stop_id":"GAGN","stop_name":"Gagnerie","stop_lat":47.23223523,"stop_lon":-1.50709391,"route_short_name":["12"]},{"stop_id":"GAIL","stop_name":"Garill\u00e8re","stop_lat":47.19240751,"stop_lon":-1.5211461,"route_short_name":["30"]},{"stop_id":"GALH","stop_name":"Galheur","stop_lat":47.16673615,"stop_lon":-1.57991548,"route_short_name":["38"]},{"stop_id":"GAMB","stop_name":"Gambetta","stop_lat":47.22361937,"stop_lon":-1.53846843,"route_short_name":["11","12"]},{"stop_id":"GATI","stop_name":"G\u00e2tine","stop_lat":47.21365797,"stop_lon":-1.66134162,"route_short_name":["91"]},{"stop_id":"GAUT","stop_name":"Gautellerie","stop_lat":47.17741844,"stop_lon":-1.60209659,"route_short_name":["36","78","88"]},{"stop_id":"GBLO","stop_name":"Grand Blottereau","stop_lat":47.22975836,"stop_lon":-1.51114692,"route_short_name":["12"]},{"stop_id":"GBNI","stop_name":"Guiblini\u00e8re","stop_lat":47.29240267,"stop_lon":-1.52042422,"route_short_name":["75"]},{"stop_id":"GBTA","stop_name":"Grande-Bretagne","stop_lat":47.26220784,"stop_lon":-1.50223727,"route_short_name":["77"]},{"stop_id":"GCAR","stop_name":"Grand Carcou\u00ebt","stop_lat":47.23109211,"stop_lon":-1.5917684,"route_short_name":["C20","54"]},{"stop_id":"GCEN","stop_name":"Grande Censive","stop_lat":47.25205925,"stop_lon":-1.54978913,"route_short_name":["26","66","75","80"]},{"stop_id":"GCHE","stop_name":"Gachet","stop_lat":47.29264726,"stop_lon":-1.52388364,"route_short_name":["75"]},{"stop_id":"GCSO","stop_name":"Glacisol","stop_lat":47.25150915,"stop_lon":-1.50437908,"route_short_name":["80"]},{"stop_id":"GDCH","stop_name":"Gare de Chantenay","stop_lat":47.19779136,"stop_lon":-1.59368488,"route_short_name":["C1","C20","10","81","E1"]},{"stop_id":"GDEN","stop_name":"Goldens","stop_lat":47.16205211,"stop_lon":-1.49967993,"route_short_name":["47"]},{"stop_id":"GDFI","stop_name":"Grand Fief","stop_lat":47.12563088,"stop_lon":-1.6256084,"route_short_name":["98"]},{"stop_id":"GDNN","stop_name":"Gendronnerie","stop_lat":47.12732846,"stop_lon":-1.63906358,"route_short_name":["98"]},{"stop_id":"GDOU","stop_name":"Grande Ouche","stop_lat":47.18133597,"stop_lon":-1.57966252,"route_short_name":["2","3"]},{"stop_id":"GDPI","stop_name":"Grande Pi\u00e8ce","stop_lat":47.1990716,"stop_lon":-1.51039424,"route_short_name":["27"]},{"stop_id":"GDRE","stop_name":"Guindr\u00e9","stop_lat":47.23950772,"stop_lon":-1.53737156,"route_short_name":["C6","23"]},{"stop_id":"GELL","stop_name":"Grande No\u00eblle","stop_lat":47.16232808,"stop_lon":-1.50220869,"route_short_name":["47"]},{"stop_id":"GERA","stop_name":"G\u00e9raudi\u00e8re","stop_lat":47.26173999,"stop_lon":-1.56716305,"route_short_name":["50","96"]},{"stop_id":"GESV","stop_name":"Gesvrine","stop_lat":47.26981296,"stop_lon":-1.55213869,"route_short_name":["86"]},{"stop_id":"GEVR","stop_name":"Gesvres","stop_lat":47.26362612,"stop_lon":-1.54864554,"route_short_name":["86"]},{"stop_id":"GGNO","stop_name":"Grignon","stop_lat":47.21647189,"stop_lon":-1.46643829,"route_short_name":["C9"]},{"stop_id":"GGUI","stop_name":"Gauguin","stop_lat":47.16669088,"stop_lon":-1.55468713,"route_short_name":["33"]},{"stop_id":"GIAR","stop_name":"Gilarderie","stop_lat":47.18589884,"stop_lon":-1.68252224,"route_short_name":["78","E8"]},{"stop_id":"GIBR","stop_name":"Gibraye","stop_lat":47.2049566,"stop_lon":-1.51755738,"route_short_name":["C9"]},{"stop_id":"GIND","stop_name":"Gare d'Indre","stop_lat":47.20496928,"stop_lon":-1.66254284,"route_short_name":["50","81","91","NBI"]},{"stop_id":"GIQU","stop_name":"Gicqueli\u00e8re","stop_lat":47.25814223,"stop_lon":-1.45908439,"route_short_name":["C7","87"]},{"stop_id":"GLAU","stop_name":"Grillaud","stop_lat":47.22027019,"stop_lon":-1.58158736,"route_short_name":["C3"]},{"stop_id":"GLDE","stop_name":"Grande Lande","stop_lat":47.19229235,"stop_lon":-1.49761927,"route_short_name":["28"]},{"stop_id":"GLEI","stop_name":"Grolerie","stop_lat":47.17268334,"stop_lon":-1.47244142,"route_short_name":["28","60"]},{"stop_id":"GLIE","stop_name":"Gili\u00e8re","stop_lat":47.29922316,"stop_lon":-1.55335302,"route_short_name":["86","96"]},{"stop_id":"GLNE","stop_name":"Galarne","stop_lat":47.20814414,"stop_lon":-1.52994633,"route_short_name":["5","26"]},{"stop_id":"GLOU","stop_name":"Grange au Loup","stop_lat":47.26365022,"stop_lon":-1.51570343,"route_short_name":["95"]},{"stop_id":"GMAR","stop_name":"Gare Maritime","stop_lat":47.2070398,"stop_lon":-1.57334929,"route_short_name":["1","C20","81","E1","N1"]},{"stop_id":"GMOL","stop_name":"Guy Mollet","stop_lat":47.2492802,"stop_lon":-1.55474569,"route_short_name":["75"]},{"stop_id":"GNRA","stop_name":"Greneraie","stop_lat":47.19948912,"stop_lon":-1.53288896,"route_short_name":["4","C4","C9","27","28","36","38","E8"]},{"stop_id":"GOBI","stop_name":"Gobini\u00e8re","stop_lat":47.24963128,"stop_lon":-1.58691364,"route_short_name":["79"]},{"stop_id":"GOLF","stop_name":"Golf","stop_lat":47.23649968,"stop_lon":-1.60486096,"route_short_name":["89"]},{"stop_id":"GONI","stop_name":"Gourni\u00e8re","stop_lat":47.26837456,"stop_lon":-1.54938768,"route_short_name":["86"]},{"stop_id":"GPOR","stop_name":"Grand Portail","stop_lat":47.20142037,"stop_lon":-1.52364591,"route_short_name":["C9"]},{"stop_id":"GPRO","stop_name":"Gare de Pont Rousseau","stop_lat":47.19308111,"stop_lon":-1.54933848,"route_short_name":["2"]},{"stop_id":"GRAM","stop_name":"Grammoire","stop_lat":47.18365395,"stop_lon":-1.47295778,"route_short_name":["42"]},{"stop_id":"GRET","stop_name":"Gare de l'Etat","stop_lat":47.20469674,"stop_lon":-1.56009406,"route_short_name":["5"]},{"stop_id":"GRIM","stop_name":"Grimm","stop_lat":47.21618687,"stop_lon":-1.6455347,"route_short_name":["50","71","91"]},{"stop_id":"GRMA","stop_name":"Grimau","stop_lat":47.22829746,"stop_lon":-1.65476667,"route_short_name":["93"]},{"stop_id":"GROR","stop_name":"Garenne","stop_lat":47.26509152,"stop_lon":-1.62734593,"route_short_name":["89"]},{"stop_id":"GRPO","stop_name":"Gripots","stop_lat":47.19248962,"stop_lon":-1.49168774,"route_short_name":["27"]},{"stop_id":"GRTE","stop_name":"Garotterie","stop_lat":47.22499944,"stop_lon":-1.60665786,"route_short_name":["59"]},{"stop_id":"GRVI","stop_name":"Gu\u00e9rivi\u00e8res","stop_lat":47.20518393,"stop_lon":-1.4673541,"route_short_name":["60"]},{"stop_id":"GRZI","stop_name":"Grezilli\u00e8res","stop_lat":47.21436811,"stop_lon":-1.47831696,"route_short_name":["C9"]},{"stop_id":"GSAN","stop_name":"George Sand","stop_lat":47.16575765,"stop_lon":-1.54497861,"route_short_name":["33"]},{"stop_id":"GSIN","stop_name":"Grassini\u00e8re","stop_lat":47.16574186,"stop_lon":-1.50786789,"route_short_name":["47"]},{"stop_id":"GSNO","stop_name":"Gare Nord","stop_lat":47.21780375,"stop_lon":-1.54267391,"route_short_name":["1"]},{"stop_id":"GSSU","stop_name":"Gare Sud","stop_lat":47.21593473,"stop_lon":-1.54200964,"route_short_name":["5","C2","C3","54","NA"]},{"stop_id":"GTAE","stop_name":"Grootaers","stop_lat":47.23942504,"stop_lon":-1.58510682,"route_short_name":["C20","12","59"]},{"stop_id":"GTLA","stop_name":"Garettes-Landreau","stop_lat":47.273257,"stop_lon":-1.63086301,"route_short_name":["79"]},{"stop_id":"GTVE","stop_name":"Gaston Veil","stop_lat":47.21016254,"stop_lon":-1.55560165,"route_short_name":["26"]},{"stop_id":"GULO","stop_name":"Guilloterie","stop_lat":47.16991793,"stop_lon":-1.56046881,"route_short_name":["33"]},{"stop_id":"GURO","stop_name":"Gustave Roch","stop_lat":47.20406998,"stop_lon":-1.55198669,"route_short_name":["26"]},{"stop_id":"GVNO","stop_name":"Gare de Vertou Nord","stop_lat":47.18707351,"stop_lon":-1.47848557,"route_short_name":["27","42"]},{"stop_id":"GVSU","stop_name":"Gare de Vertou Sud","stop_lat":47.18587233,"stop_lon":-1.47668256,"route_short_name":["42","60"]},{"stop_id":"HALU","stop_name":"Haluch\u00e8re - Batignolles","stop_lat":47.24892458,"stop_lon":-1.52244622,"route_short_name":["1","C1","23","77","80","85","95"]},{"stop_id":"HARO","stop_name":"Harouys","stop_lat":47.21689016,"stop_lon":-1.56706301,"route_short_name":["C6","26","54"]},{"stop_id":"HAUB","stop_name":"Haubans","stop_lat":47.21462644,"stop_lon":-1.53001825,"route_short_name":["5","C3"]},{"stop_id":"HAVE","stop_name":"Halv\u00eaque","stop_lat":47.25709026,"stop_lon":-1.5206545,"route_short_name":["1","95"]},{"stop_id":"HBAN","stop_name":"Hangar \u00e0 Bananes","stop_lat":47.20048109,"stop_lon":-1.5728701,"route_short_name":["5","N2"]},{"stop_id":"HBDE","stop_name":"Halbarderie","stop_lat":47.26829118,"stop_lon":-1.43797408,"route_short_name":["C7","67"]},{"stop_id":"HBLI","stop_name":"H\u00f4pital Bellier","stop_lat":47.22101603,"stop_lon":-1.52479552,"route_short_name":["1"]},{"stop_id":"HBRA","stop_name":"Herbray","stop_lat":47.15048552,"stop_lon":-1.47099504,"route_short_name":["47"]},{"stop_id":"HCOU","stop_name":"Hauts de Cou\u00ebron","stop_lat":47.24056965,"stop_lon":-1.6697021,"route_short_name":["93"]},{"stop_id":"HDIE","stop_name":"Haudri\u00e8re","stop_lat":47.15447112,"stop_lon":-1.46758151,"route_short_name":["47"]},{"stop_id":"HERM","stop_name":"Hermeland","stop_lat":47.22996584,"stop_lon":-1.6168089,"route_short_name":["C6","59"]},{"stop_id":"HFLE","stop_name":"Hameau Fleuri","stop_lat":47.2510643,"stop_lon":-1.58979665,"route_short_name":["79"]},{"stop_id":"HFVE","stop_name":"Haute For\u00eat","stop_lat":47.16831427,"stop_lon":-1.4656595,"route_short_name":["97"]},{"stop_id":"HGNR","stop_name":"Haute Gourni\u00e8re","stop_lat":47.26786564,"stop_lon":-1.54577813,"route_short_name":["E5"]},{"stop_id":"HILE","stop_name":"Haute Ile","stop_lat":47.19464662,"stop_lon":-1.55632322,"route_short_name":["36"]},{"stop_id":"HIND","stop_name":"Haute Indre","stop_lat":47.19540815,"stop_lon":-1.6499352,"route_short_name":["81","NBI"]},{"stop_id":"HIPP","stop_name":"Hippodrome","stop_lat":47.24758084,"stop_lon":-1.56771648,"route_short_name":["C20","26"]},{"stop_id":"HLAN","stop_name":"Haute Lande","stop_lat":47.15477271,"stop_lon":-1.52345288,"route_short_name":["C4"]},{"stop_id":"HMLL","stop_name":"Houmaille","stop_lat":47.18910344,"stop_lon":-1.58696919,"route_short_name":["36"]},{"stop_id":"HODI","stop_name":"H\u00f4tel Dieu","stop_lat":47.21151388,"stop_lon":-1.55292423,"route_short_name":["2","3","C2","C3","54","NA"]},{"stop_id":"HOGR","stop_name":"Hongrie","stop_lat":47.21590797,"stop_lon":-1.52403029,"route_short_name":["C3"]},{"stop_id":"HOSE","stop_name":"Housseau","stop_lat":47.28107173,"stop_lon":-1.49829865,"route_short_name":["95"]},{"stop_id":"HPLA","stop_name":"H\u00f4pital La\u00ebnnec","stop_lat":47.23688456,"stop_lon":-1.64086027,"route_short_name":["93"]},{"stop_id":"HREG","stop_name":"H\u00f4tel de R\u00e9gion","stop_lat":47.2103433,"stop_lon":-1.52614007,"route_short_name":["26"]},{"stop_id":"HRLL","stop_name":"H\u00e9relle","stop_lat":47.20136272,"stop_lon":-1.58667861,"route_short_name":["C1"]},{"stop_id":"HVCQ","stop_name":"Mairie de Carquefou","stop_lat":47.29889879,"stop_lon":-1.49031126,"route_short_name":["75","95"]},{"stop_id":"HVNA","stop_name":"H\u00f4tel de Ville","stop_lat":47.21777194,"stop_lon":-1.55430456,"route_short_name":["C1","C6","11","12"]},{"stop_id":"ICAM","stop_name":"ICAM","stop_lat":47.27365801,"stop_lon":-1.50186879,"route_short_name":["95"]},{"stop_id":"ICOU","stop_name":"ICO","stop_lat":47.23850738,"stop_lon":-1.63820369,"route_short_name":["93"]},{"stop_id":"IDFR","stop_name":"\u00cele de France","stop_lat":47.16941272,"stop_lon":-1.46785057,"route_short_name":["28","42","60","97"]},{"stop_id":"IDLO","stop_name":"\u00celes de Loire","stop_lat":47.21028204,"stop_lon":-1.49018517,"route_short_name":["30"]},{"stop_id":"IDNA","stop_name":"Ile de Nantes","stop_lat":47.20631111,"stop_lon":-1.53893314,"route_short_name":["4","5"]},{"stop_id":"IMPR","stop_name":"Imprimeurs","stop_lat":47.2386647,"stop_lon":-1.67008841,"route_short_name":["93"]},{"stop_id":"INLA","stop_name":"Internat La\u00ebnnec","stop_lat":47.23500246,"stop_lon":-1.64058805,"route_short_name":["93"]},{"stop_id":"INRE","stop_name":"Indre","stop_lat":47.20116504,"stop_lon":-1.66833797,"route_short_name":["81","E1"]},{"stop_id":"IROI","stop_name":"Iroise","stop_lat":47.24818171,"stop_lon":-1.53654509,"route_short_name":["23"]},{"stop_id":"ISLE","stop_name":"Islettes","stop_lat":47.26333978,"stop_lon":-1.47625538,"route_short_name":["87"]},{"stop_id":"IUTH","stop_name":"IUT","stop_lat":47.29788592,"stop_lon":-1.50453644,"route_short_name":["85"]},{"stop_id":"JALI","stop_name":"Jali\u00e8re","stop_lat":47.26424401,"stop_lon":-1.59685112,"route_short_name":["50","79","89"]},{"stop_id":"JAME","stop_name":"Jamet","stop_lat":47.21000952,"stop_lon":-1.60251303,"route_short_name":["1"]},{"stop_id":"JANA","stop_name":"Jaunais","stop_lat":47.17604452,"stop_lon":-1.53370427,"route_short_name":["30"]},{"stop_id":"JAPY","stop_name":"Japy","stop_lat":47.25928122,"stop_lon":-1.5116844,"route_short_name":["77"]},{"stop_id":"JARI","stop_name":"Jarriais","stop_lat":47.21293011,"stop_lon":-1.71826229,"route_short_name":["91","E1"]},{"stop_id":"JAUR","stop_name":"Jacqueline Auriol","stop_lat":47.27133541,"stop_lon":-1.47140072,"route_short_name":["77"]},{"stop_id":"JBAR","stop_name":"Jean Bart","stop_lat":47.19920583,"stop_lon":-1.67546,"route_short_name":["50","81"]},{"stop_id":"JBNA","stop_name":"Jeanne Bernard","stop_lat":47.23525187,"stop_lon":-1.59128052,"route_short_name":["59","89"]},{"stop_id":"JCAR","stop_name":"Jacques Cartier","stop_lat":47.22398045,"stop_lon":-1.63633093,"route_short_name":["50","93"]},{"stop_id":"JCOU","stop_name":"Joncours","stop_lat":47.22000538,"stop_lon":-1.58672381,"route_short_name":["10"]},{"stop_id":"JDGA","stop_name":"Jardins de Ga\u00efa","stop_lat":47.15758297,"stop_lon":-1.67828442,"route_short_name":["88"]},{"stop_id":"JFER","stop_name":"Jules Ferry","stop_lat":47.25072273,"stop_lon":-1.48739206,"route_short_name":["80"]},{"stop_id":"JFRA","stop_name":"Jean Fraix","stop_lat":47.18603448,"stop_lon":-1.54195702,"route_short_name":["97"]},{"stop_id":"JGUE","stop_name":"Jagu\u00e8re","stop_lat":47.17552586,"stop_lon":-1.56774566,"route_short_name":["33","38"]},{"stop_id":"JHDI","stop_name":"Jahardi\u00e8res","stop_lat":47.1253996,"stop_lon":-1.6427477,"route_short_name":["98"]},{"stop_id":"JJCE","stop_name":"Jean Jaur\u00e8s","stop_lat":47.30132429,"stop_lon":-1.54979885,"route_short_name":["86"]},{"stop_id":"JJNA","stop_name":"Jean Jaur\u00e8s","stop_lat":47.21838897,"stop_lon":-1.56003382,"route_short_name":["3"]},{"stop_id":"JLIE","stop_name":"Joliverie","stop_lat":47.18994029,"stop_lon":-1.51951495,"route_short_name":["30"]},{"stop_id":"JLVE","stop_name":"Joliverie","stop_lat":47.18958808,"stop_lon":-1.51658293,"route_short_name":["4","30","42"]},{"stop_id":"JMAC","stop_name":"Jean Mac\u00e9","stop_lat":47.20055415,"stop_lon":-1.5892624,"route_short_name":["C1","10"]},{"stop_id":"JMLI","stop_name":"Jean Moulin","stop_lat":47.20674389,"stop_lon":-1.60055442,"route_short_name":["1","11"]},{"stop_id":"JMON","stop_name":"Jean Monnet","stop_lat":47.16626072,"stop_lon":-1.46511753,"route_short_name":["97"]},{"stop_id":"JNAI","stop_name":"Jaunaie","stop_lat":47.21889815,"stop_lon":-1.72783718,"route_short_name":["71","91"]},{"stop_id":"JNIG","stop_name":"Jean Ingres","stop_lat":47.22227374,"stop_lon":-1.59680573,"route_short_name":["C3"]},{"stop_id":"JNLI","stop_name":"Joneli\u00e8re","stop_lat":47.25173237,"stop_lon":-1.54077058,"route_short_name":["26"]},{"stop_id":"JOTE","stop_name":"Jouetterie","stop_lat":47.13147138,"stop_lon":-1.66246897,"route_short_name":["98"]},{"stop_id":"JPER","stop_name":"Jean Perrin","stop_lat":47.18125645,"stop_lon":-1.56076577,"route_short_name":["30"]},{"stop_id":"JPTR","stop_name":"Jupiter","stop_lat":47.28480858,"stop_lon":-1.4560817,"route_short_name":["77"]},{"stop_id":"JROS","stop_name":"Jean Rostand","stop_lat":47.24579942,"stop_lon":-1.59364253,"route_short_name":["3"]},{"stop_id":"JTIC","stop_name":"Justice","stop_lat":47.20937366,"stop_lon":-1.63154531,"route_short_name":["91"]},{"stop_id":"JUIV","stop_name":"Juiverie","stop_lat":47.21077751,"stop_lon":-1.62477596,"route_short_name":["81","91"]},{"stop_id":"JUME","stop_name":"Jumeli\u00e8re","stop_lat":47.29430114,"stop_lon":-1.4877315,"route_short_name":["85"]},{"stop_id":"JVAL","stop_name":"Jules Vall\u00e8s","stop_lat":47.17343751,"stop_lon":-1.5708955,"route_short_name":["38"]},{"stop_id":"JVNA","stop_name":"Jules Verne","stop_lat":47.24891698,"stop_lon":-1.51728725,"route_short_name":["12"]},{"stop_id":"JVRA","stop_name":"Janvraie","stop_lat":47.19952783,"stop_lon":-1.61138865,"route_short_name":["C20"]},{"stop_id":"KERE","stop_name":"Keren","stop_lat":47.24441135,"stop_lon":-1.53349459,"route_short_name":["C6"]},{"stop_id":"KOEN","stop_name":"Koenig","stop_lat":47.19812088,"stop_lon":-1.61564579,"route_short_name":["40"]},{"stop_id":"KOUF","stop_name":"Koufra","stop_lat":47.25025891,"stop_lon":-1.53100788,"route_short_name":["C6","23"]},{"stop_id":"LABE","stop_name":"Lac de Beaulieu","stop_lat":47.21942035,"stop_lon":-1.69244445,"route_short_name":["71"]},{"stop_id":"LACH","stop_name":"L'Arche","stop_lat":47.21291368,"stop_lon":-1.70847863,"route_short_name":["71","91"]},{"stop_id":"LADO","stop_name":"Ladoum\u00e8gue","stop_lat":47.29614184,"stop_lon":-1.48653946,"route_short_name":["85"]},{"stop_id":"LAGE","stop_name":"Largeau","stop_lat":47.1950328,"stop_lon":-1.50997182,"route_short_name":["28","30"]},{"stop_id":"LAHA","stop_name":"La Haie","stop_lat":47.26094875,"stop_lon":-1.47502649,"route_short_name":["87"]},{"stop_id":"LAIL","stop_name":"Les Ailes","stop_lat":47.17116491,"stop_lon":-1.57416373,"route_short_name":["38"]},{"stop_id":"LALL","stop_name":"Lalli\u00e9","stop_lat":47.22668625,"stop_lon":-1.54635903,"route_short_name":["C6"]},{"stop_id":"LAMA","stop_name":"Lamartine","stop_lat":47.21649203,"stop_lon":-1.578799,"route_short_name":["C3"]},{"stop_id":"LANA","stop_name":"Launay","stop_lat":47.26546265,"stop_lon":-1.6322692,"route_short_name":["89"]},{"stop_id":"LAUR","stop_name":"Lauriers","stop_lat":47.20487459,"stop_lon":-1.60517484,"route_short_name":["1"]},{"stop_id":"LAXX","stop_name":"La Croix","stop_lat":47.16527571,"stop_lon":-1.48670499,"route_short_name":["97"]},{"stop_id":"LBAU","stop_name":"Les Bauches","stop_lat":47.26336633,"stop_lon":-1.67723271,"route_short_name":["69"]},{"stop_id":"LBER","stop_name":"Lindbergh","stop_lat":47.15502934,"stop_lon":-1.5983375,"route_short_name":["38","98"]},{"stop_id":"LBPI","stop_name":"L'Ebaupin","stop_lat":47.17161474,"stop_lon":-1.51000653,"route_short_name":["97"]},{"stop_id":"LCAR","stop_name":"Le Cardo","stop_lat":47.2616971,"stop_lon":-1.58435937,"route_short_name":["2","C2","50","59","89"]},{"stop_id":"LCBU","stop_name":"Le Corbusier","stop_lat":47.19017971,"stop_lon":-1.56855029,"route_short_name":["30","97"]},{"stop_id":"LCEE","stop_name":"La Carr\u00e9e","stop_lat":47.16849749,"stop_lon":-1.5438565,"route_short_name":["C4","30"]},{"stop_id":"LCLE","stop_name":"La Coul\u00e9e","stop_lat":47.26013301,"stop_lon":-1.57471905,"route_short_name":["C2"]},{"stop_id":"LCNE","stop_name":"Le Ch\u00eane","stop_lat":47.16526458,"stop_lon":-1.48432715,"route_short_name":["97"]},{"stop_id":"LCOG","stop_name":"La Cogne","stop_lat":47.28692948,"stop_lon":-1.55735542,"route_short_name":["86","96"]},{"stop_id":"LCSE","stop_name":"La Close","stop_lat":47.24083446,"stop_lon":-1.57277848,"route_short_name":["C2"]},{"stop_id":"LCTE","stop_name":"La C\u00f4te","stop_lat":47.28204741,"stop_lon":-1.56057316,"route_short_name":["96"]},{"stop_id":"LDAS","stop_name":"Landas","stop_lat":47.16933769,"stop_lon":-1.51076745,"route_short_name":["47"]},{"stop_id":"LDRE","stop_name":"Landreau","stop_lat":47.2321111,"stop_lon":-1.51620851,"route_short_name":["1","87"]},{"stop_id":"LECH","stop_name":"Lechat","stop_lat":47.20343787,"stop_lon":-1.58128002,"route_short_name":["C1"]},{"stop_id":"LEGU","stop_name":"Leygues","stop_lat":47.20314541,"stop_lon":-1.54200777,"route_short_name":["26"]},{"stop_id":"LEVO","stop_name":"Levoyer","stop_lat":47.19387396,"stop_lon":-1.58176916,"route_short_name":["30"]},{"stop_id":"LFAU","stop_name":"Les Faulx","stop_lat":47.15741367,"stop_lon":-1.52258688,"route_short_name":["C4"]},{"stop_id":"LFER","stop_name":"La Ferme","stop_lat":47.26424888,"stop_lon":-1.68034232,"route_short_name":["69"]},{"stop_id":"LFLE","stop_name":"Laurier Fleuri","stop_lat":47.18834076,"stop_lon":-1.48372835,"route_short_name":["27","42"]},{"stop_id":"LFOR","stop_name":"La For\u00eat","stop_lat":47.14947537,"stop_lon":-1.63938699,"route_short_name":["88"]},{"stop_id":"LFVR","stop_name":"Lefeuvre","stop_lat":47.26686052,"stop_lon":-1.49502977,"route_short_name":["77"]},{"stop_id":"LGAR","stop_name":"La Garde","stop_lat":47.25576216,"stop_lon":-1.50918227,"route_short_name":["80"]},{"stop_id":"LGOF","stop_name":"Le Goffic","stop_lat":47.2303435,"stop_lon":-1.56341702,"route_short_name":["C2","12","23"]},{"stop_id":"LGRI","stop_name":"La Grille","stop_lat":47.25099185,"stop_lon":-1.48198826,"route_short_name":["C7"]},{"stop_id":"LGTH","stop_name":"Lagathu","stop_lat":47.1803629,"stop_lon":-1.53652635,"route_short_name":["97"]},{"stop_id":"LHAC","stop_name":"La Hache","stop_lat":47.26222776,"stop_lon":-1.49893123,"route_short_name":["77"]},{"stop_id":"LHER","stop_name":"La Herdrie","stop_lat":47.19778397,"stop_lon":-1.45414308,"route_short_name":["27"]},{"stop_id":"LHLE","stop_name":"Le Halleray","stop_lat":47.26975159,"stop_lon":-1.45660101,"route_short_name":["87"]},{"stop_id":"LHOU","stop_name":"La Houssais","stop_lat":47.17420163,"stop_lon":-1.55364795,"route_short_name":["30"]},{"stop_id":"LHPI","stop_name":"L'Hopitau","stop_lat":47.27226546,"stop_lon":-1.55152318,"route_short_name":["86"]},{"stop_id":"LIBE","stop_name":"Lib\u00e9ration","stop_lat":47.17728552,"stop_lon":-1.67896934,"route_short_name":["88","E8"]},{"stop_id":"LILA","stop_name":"Lilas","stop_lat":47.1376758,"stop_lon":-1.46889686,"route_short_name":["47"]},{"stop_id":"LION","stop_name":"Lionni\u00e8re","stop_lat":47.21866696,"stop_lon":-1.6959573,"route_short_name":["71"]},{"stop_id":"LIPP","stop_name":"Lippmann","stop_lat":47.23890585,"stop_lon":-1.52040083,"route_short_name":["11"]},{"stop_id":"LITT","stop_name":"Littr\u00e9","stop_lat":47.21772316,"stop_lon":-1.58232618,"route_short_name":["C3"]},{"stop_id":"LJOS","stop_name":"L\u00e9on Jost","stop_lat":47.23629112,"stop_lon":-1.56332179,"route_short_name":["26"]},{"stop_id":"LLGR","stop_name":"L\u00e9o Lagrange","stop_lat":47.29699568,"stop_lon":-1.55530903,"route_short_name":["86","96"]},{"stop_id":"LLIO","stop_name":"Les Lions","stop_lat":47.24991585,"stop_lon":-1.61550625,"route_short_name":["69"]},{"stop_id":"LLMO","stop_name":"Le Cl\u00e9mois","stop_lat":47.13729352,"stop_lon":-1.72257048,"route_short_name":["98"]},{"stop_id":"LLOR","stop_name":"La Lorie","stop_lat":47.23524557,"stop_lon":-1.65700442,"route_short_name":["93"]},{"stop_id":"LMAR","stop_name":"La Marche","stop_lat":47.18067739,"stop_lon":-1.65914283,"route_short_name":["78"]},{"stop_id":"LMBR","stop_name":"Lambert","stop_lat":47.17089014,"stop_lon":-1.53967137,"route_short_name":["30"]},{"stop_id":"LMIC","stop_name":"Louise Michel","stop_lat":47.21936503,"stop_lon":-1.61338144,"route_short_name":["59"]},{"stop_id":"LMNE","stop_name":"Lemoine","stop_lat":47.23547339,"stop_lon":-1.54752596,"route_short_name":["10","23"]},{"stop_id":"LMRI","stop_name":"Lamorici\u00e8re","stop_lat":47.21445183,"stop_lon":-1.57256911,"route_short_name":["C1","C3","23"]},{"stop_id":"LMTA","stop_name":"La Montagne","stop_lat":47.18845833,"stop_lon":-1.6891889,"route_short_name":["78","E8"]},{"stop_id":"LNAI","stop_name":"Le Nain","stop_lat":47.22663531,"stop_lon":-1.60096082,"route_short_name":["C6","C20"]},{"stop_id":"LNOU","stop_name":"La Noue","stop_lat":47.14075627,"stop_lon":-1.60745376,"route_short_name":["98"]},{"stop_id":"LNTT","stop_name":"Linot","stop_lat":47.26537241,"stop_lon":-1.52614758,"route_short_name":["C6","75"]},{"stop_id":"LOIR","stop_name":"Loire","stop_lat":47.24840854,"stop_lon":-1.48656524,"route_short_name":["80"]},{"stop_id":"LOMB","stop_name":"Lombarderie","stop_lat":47.23358033,"stop_lon":-1.55558686,"route_short_name":["10","23"]},{"stop_id":"LONG","stop_name":"Longchamp","stop_lat":47.23484287,"stop_lon":-1.58212605,"route_short_name":["3"]},{"stop_id":"LPBA","stop_name":"Bac du Pellerin","stop_lat":47.20289715,"stop_lon":-1.75490668,"route_short_name":["78"]},{"stop_id":"LPEL","stop_name":"Le Pellerin","stop_lat":47.20066234,"stop_lon":-1.75949387,"route_short_name":["78","E8"]},{"stop_id":"LPLE","stop_name":"La Pl\u00e9e","stop_lat":47.19318013,"stop_lon":-1.46266938,"route_short_name":["27","60"]},{"stop_id":"LPME","stop_name":"La Plume","stop_lat":47.1949216,"stop_lon":-1.50520704,"route_short_name":["28"]},{"stop_id":"LRCH","stop_name":"La Roche","stop_lat":47.2164307,"stop_lon":-1.51917709,"route_short_name":["C3"]},{"stop_id":"LRHE","stop_name":"Les Roches","stop_lat":47.26373177,"stop_lon":-1.58014242,"route_short_name":["C2","50","59"]},{"stop_id":"LRNE","stop_name":"Lourneau","stop_lat":47.20025824,"stop_lon":-1.48827912,"route_short_name":["C9"]},{"stop_id":"LSAL","stop_name":"La Salle","stop_lat":47.21431572,"stop_lon":-1.6890195,"route_short_name":["91","E1"]},{"stop_id":"LSLL","stop_name":"Les Salles","stop_lat":47.2503646,"stop_lon":-1.53590959,"route_short_name":["23"]},{"stop_id":"LSOU","stop_name":"La Source","stop_lat":47.30567326,"stop_lon":-1.55170423,"route_short_name":["86"]},{"stop_id":"LSYY","stop_name":"L\u00e9on Say","stop_lat":47.22960794,"stop_lon":-1.56918121,"route_short_name":["26"]},{"stop_id":"LTOU","stop_name":"Le Tour","stop_lat":47.15160805,"stop_lon":-1.68945617,"route_short_name":["88"]},{"stop_id":"LUNI","stop_name":"Lieu Unique","stop_lat":47.21562183,"stop_lon":-1.54595256,"route_short_name":["C2","C3","54","NA"]},{"stop_id":"LYBR","stop_name":"Lyc\u00e9e Brottier","stop_lat":47.16057526,"stop_lon":-1.67771637,"route_short_name":["88"]},{"stop_id":"LYOR","stop_name":"Lyc\u00e9e d'Orbigny","stop_lat":47.154266,"stop_lon":-1.68041263,"route_short_name":["88"]},{"stop_id":"LYPE","stop_name":"Lyc\u00e9e Appert","stop_lat":47.25167763,"stop_lon":-1.61140346,"route_short_name":["89"]},{"stop_id":"LYRI","stop_name":"Lyc\u00e9e Rieffel","stop_lat":47.25547237,"stop_lon":-1.64250784,"route_short_name":["69"]},{"stop_id":"LZCA","stop_name":"Lusan\u00e7ay","stop_lat":47.20267876,"stop_lon":-1.58241386,"route_short_name":["C1"]},{"stop_id":"MAAR","stop_name":"Maillardi\u00e8re","stop_lat":47.27404186,"stop_lon":-1.63422975,"route_short_name":["79"]},{"stop_id":"MADO","stop_name":"Mandon","stop_lat":47.16049398,"stop_lon":-1.4706502,"route_short_name":["47"]},{"stop_id":"MAGA","stop_name":"Gare de Mauves","stop_lat":47.29318073,"stop_lon":-1.3898298,"route_short_name":["67"]},{"stop_id":"MAI8","stop_name":"8 Mai","stop_lat":47.18921858,"stop_lon":-1.55170053,"route_short_name":["2","3","38","97"]},{"stop_id":"MALL","stop_name":"Mail","stop_lat":47.26906222,"stop_lon":-1.61136441,"route_short_name":["79","89"]},{"stop_id":"MARR","stop_name":"Maison d'Arr\u00eat","stop_lat":47.26687113,"stop_lon":-1.50283681,"route_short_name":["95"]},{"stop_id":"MATI","stop_name":"Mati\u00e8re","stop_lat":47.27639977,"stop_lon":-1.44886845,"route_short_name":["77"]},{"stop_id":"MAUC","stop_name":"Centre De Mauves","stop_lat":47.29677512,"stop_lon":-1.3928604,"route_short_name":["67"]},{"stop_id":"MAZE","stop_name":"Maz\u00e8res","stop_lat":47.31362172,"stop_lon":-1.35060463,"route_short_name":["67"]},{"stop_id":"MBLA","stop_name":"Mont Blanc","stop_lat":47.17673595,"stop_lon":-1.55594557,"route_short_name":["30"]},{"stop_id":"MBOU","stop_name":"Mairie de Bouguenais","stop_lat":47.17901016,"stop_lon":-1.61872647,"route_short_name":["36"]},{"stop_id":"MBRU","stop_name":"Moulin Br\u00fbl\u00e9","stop_lat":47.25946869,"stop_lon":-1.65458039,"route_short_name":["69"]},{"stop_id":"MBSE","stop_name":"Moulin Boisseau","stop_lat":47.28838631,"stop_lon":-1.48413143,"route_short_name":["85"]},{"stop_id":"MCAS","stop_name":"Moulin Cass\u00e9","stop_lat":47.25657559,"stop_lon":-1.46836515,"route_short_name":["C7","87"]},{"stop_id":"MCCO","stop_name":"March\u00e9 Commun","stop_lat":47.25967252,"stop_lon":-1.49993852,"route_short_name":["85"]},{"stop_id":"MCHA","stop_name":"Mairie de Chantenay","stop_lat":47.20636707,"stop_lon":-1.58783853,"route_short_name":["10","11"]},{"stop_id":"MCOU","stop_name":"Mairie de Cou\u00ebron","stop_lat":47.21225494,"stop_lon":-1.7272003,"route_short_name":["91","E1"]},{"stop_id":"MCUR","stop_name":"Madame Curie","stop_lat":47.18912957,"stop_lon":-1.55433651,"route_short_name":["97"]},{"stop_id":"MDAR","stop_name":"Maison des Arts","stop_lat":47.21192952,"stop_lon":-1.61745893,"route_short_name":["23","59","81","91"]},{"stop_id":"MDEL","stop_name":"Mandel","stop_lat":47.20250088,"stop_lon":-1.53707135,"route_short_name":["26"]},{"stop_id":"MDLA","stop_name":"Moulin des Landes","stop_lat":47.26199275,"stop_lon":-1.48158345,"route_short_name":["87"]},{"stop_id":"MDNE","stop_name":"Madeleine","stop_lat":47.27534959,"stop_lon":-1.48346404,"route_short_name":["85"]},{"stop_id":"MDOU","stop_name":"Mairie de Doulon","stop_lat":47.22680291,"stop_lon":-1.51873485,"route_short_name":["1","12","87"]},{"stop_id":"MDPO","stop_name":"Moulin de Porterie","stop_lat":47.27583508,"stop_lon":-1.51221479,"route_short_name":["C6","75"]},{"stop_id":"MDRE","stop_name":"Madoire","stop_lat":47.26508756,"stop_lon":-1.63793097,"route_short_name":["89"]},{"stop_id":"MDSI","stop_name":"Mond\u00e9sir","stop_lat":47.21782484,"stop_lon":-1.56871754,"route_short_name":["C6","26","54"]},{"stop_id":"MDTH","stop_name":"M\u00e9diath\u00e8que","stop_lat":47.2110535,"stop_lon":-1.5612179,"route_short_name":["1","11"]},{"stop_id":"MEDI","stop_name":"M\u00e9diterran\u00e9e","stop_lat":47.27115536,"stop_lon":-1.48501673,"route_short_name":["85"]},{"stop_id":"MELI","stop_name":"M\u00e9li\u00e8s","stop_lat":47.18159213,"stop_lon":-1.55616656,"route_short_name":["38"]},{"stop_id":"META","stop_name":"M\u00e9tairie","stop_lat":47.21389385,"stop_lon":-1.69850583,"route_short_name":["71","91","E1"]},{"stop_id":"MGAL","stop_name":"Marie Galante","stop_lat":47.26417032,"stop_lon":-1.45104526,"route_short_name":["87"]},{"stop_id":"MGCH","stop_name":"Monge - Chauvini\u00e8re","stop_lat":47.25367321,"stop_lon":-1.57398187,"route_short_name":["86","96"]},{"stop_id":"MGDR","stop_name":"Mongendri\u00e8re","stop_lat":47.29242701,"stop_lon":-1.55457907,"route_short_name":["86","96"]},{"stop_id":"MGIN","stop_name":"Mangin","stop_lat":47.20160574,"stop_lon":-1.54493569,"route_short_name":["2","3","26"]},{"stop_id":"MGLI","stop_name":"Magnoliers","stop_lat":47.22629784,"stop_lon":-1.60556361,"route_short_name":["59"]},{"stop_id":"MGNO","stop_name":"Mignonnerie","stop_lat":47.24314439,"stop_lon":-1.48235363,"route_short_name":["80"]},{"stop_id":"MGUA","stop_name":"Mainguais","stop_lat":47.28266905,"stop_lon":-1.48544315,"route_short_name":["85"]},{"stop_id":"MHDI","stop_name":"Mahaudi\u00e8res","stop_lat":47.18892461,"stop_lon":-1.56039923,"route_short_name":["97"]},{"stop_id":"MHUI","stop_name":"Moulin \u00e0 l'Huile","stop_lat":47.17695783,"stop_lon":-1.56269844,"route_short_name":["38"]},{"stop_id":"MIAI","stop_name":"Minais","stop_lat":47.25709013,"stop_lon":-1.46641753,"route_short_name":["C7","87"]},{"stop_id":"MICH","stop_name":"Michelet","stop_lat":47.23451072,"stop_lon":-1.55737362,"route_short_name":["2","10","23"]},{"stop_id":"MIEA","stop_name":"Millenia","stop_lat":47.12393115,"stop_lon":-1.63049753,"route_short_name":["98"]},{"stop_id":"MIMO","stop_name":"Mimosas","stop_lat":47.24123544,"stop_lon":-1.5874879,"route_short_name":["79"]},{"stop_id":"MIND","stop_name":"Mairie d'Indre","stop_lat":47.20071585,"stop_lon":-1.66830435,"route_short_name":["50","81","91","NBI"]},{"stop_id":"MITR","stop_name":"Mitrie","stop_lat":47.22784443,"stop_lon":-1.52528847,"route_short_name":["10","11","12"]},{"stop_id":"MKSU","stop_name":"Malakoff","stop_lat":47.21644994,"stop_lon":-1.52129347,"route_short_name":["C3"]},{"stop_id":"MLAN","stop_name":"Magellan","stop_lat":47.18816871,"stop_lon":-1.4644275,"route_short_name":["27"]},{"stop_id":"MLCH","stop_name":"Morlach\u00e8re","stop_lat":47.1619532,"stop_lon":-1.48369475,"route_short_name":["47"]},{"stop_id":"MLCS","stop_name":"Moulin Cass\u00e9","stop_lat":47.15584723,"stop_lon":-1.70984686,"route_short_name":["98"]},{"stop_id":"MLDR","stop_name":"Maladrie","stop_lat":47.18828858,"stop_lon":-1.49614345,"route_short_name":["42"]},{"stop_id":"MLHE","stop_name":"Moulin H\u00e9rel","stop_lat":47.21943384,"stop_lon":-1.63757971,"route_short_name":["71"]},{"stop_id":"MLIN","stop_name":"Moulin","stop_lat":47.18888411,"stop_lon":-1.5053022,"route_short_name":["42"]},{"stop_id":"MLLI","stop_name":"Mellinet","stop_lat":47.21175266,"stop_lon":-1.57779128,"route_short_name":["C1","11","23"]},{"stop_id":"MLNE","stop_name":"Moulinets","stop_lat":47.20990457,"stop_lon":-1.62920545,"route_short_name":["91"]},{"stop_id":"MLON","stop_name":"Mulonni\u00e8re","stop_lat":47.26556714,"stop_lon":-1.54984512,"route_short_name":["86"]},{"stop_id":"MLRA","stop_name":"Malraux","stop_lat":47.2543078,"stop_lon":-1.51767585,"route_short_name":["77"]},{"stop_id":"MMSS","stop_name":"Mermoz","stop_lat":47.19872011,"stop_lon":-1.51552255,"route_short_name":["27","28"]},{"stop_id":"MNEF","stop_name":"Moulin Neuf","stop_lat":47.23021107,"stop_lon":-1.51646831,"route_short_name":["87"]},{"stop_id":"MNFA","stop_name":"Manufacture","stop_lat":47.21869109,"stop_lon":-1.53771487,"route_short_name":["1"]},{"stop_id":"MNIE","stop_name":"Moulinier","stop_lat":47.13515319,"stop_lon":-1.66538374,"route_short_name":["98"]},{"stop_id":"MNOT","stop_name":"Minoterie","stop_lat":47.216866,"stop_lon":-1.72160133,"route_short_name":["71"]},{"stop_id":"MNSS","stop_name":"Malnoue","stop_lat":47.20265743,"stop_lon":-1.50549809,"route_short_name":["30"]},{"stop_id":"MNTR","stop_name":"M\u00e9n\u00e9trier","stop_lat":47.24086637,"stop_lon":-1.52371617,"route_short_name":["11"]},{"stop_id":"MNVE","stop_name":"Maison Neuve","stop_lat":47.27462384,"stop_lon":-1.46726826,"route_short_name":["77"]},{"stop_id":"MOET","stop_name":"Mouettes","stop_lat":47.21055137,"stop_lon":-1.74227284,"route_short_name":["71"]},{"stop_id":"MOIN","stop_name":"Moinard","stop_lat":47.21353271,"stop_lon":-1.72928032,"route_short_name":["91"]},{"stop_id":"MONE","stop_name":"Moinet","stop_lat":47.26469759,"stop_lon":-1.49236094,"route_short_name":["77","85"]},{"stop_id":"MORH","stop_name":"Morrhonni\u00e8re - Petit Port","stop_lat":47.24148227,"stop_lon":-1.55629426,"route_short_name":["2","26"]},{"stop_id":"MOTE","stop_name":"Motte Rouge","stop_lat":47.228791,"stop_lon":-1.55338727,"route_short_name":["2"]},{"stop_id":"MOUT","stop_name":"Moutonnerie","stop_lat":47.21955608,"stop_lon":-1.53341505,"route_short_name":["1"]},{"stop_id":"MOVA","stop_name":"Mairie d'Orvault","stop_lat":47.27137293,"stop_lon":-1.62278323,"route_short_name":["79","89"]},{"stop_id":"MOZI","stop_name":"Monzie","stop_lat":47.20339609,"stop_lon":-1.53991144,"route_short_name":["26"]},{"stop_id":"MPAU","stop_name":"Marcel Paul","stop_lat":47.24576505,"stop_lon":-1.61572851,"route_short_name":["3","50","54"]},{"stop_id":"MPER","stop_name":"Millepertuis","stop_lat":47.22194228,"stop_lon":-1.67954515,"route_short_name":["71"]},{"stop_id":"MPMN","stop_name":"Melpom\u00e8ne","stop_lat":47.2775917,"stop_lon":-1.50003396,"route_short_name":["95"]},{"stop_id":"MPTA","stop_name":"Maison Poitard","stop_lat":47.14700488,"stop_lon":-1.64831344,"route_short_name":["88"]},{"stop_id":"MQDI","stop_name":"Marquis de Dion","stop_lat":47.29709079,"stop_lon":-1.48779883,"route_short_name":["85"]},{"stop_id":"MQLI","stop_name":"Mocqueli\u00e8re","stop_lat":47.2331368,"stop_lon":-1.61889461,"route_short_name":["59"]},{"stop_id":"MRAI","stop_name":"Mara\u00eechers","stop_lat":47.18483142,"stop_lon":-1.51069199,"route_short_name":["4"]},{"stop_id":"MRDI","stop_name":"Maison Radieuse","stop_lat":47.18791072,"stop_lon":-1.56640295,"route_short_name":["30"]},{"stop_id":"MREZ","stop_name":"Mairie de Rez\u00e9","stop_lat":47.19121764,"stop_lon":-1.56981518,"route_short_name":["30","97"]},{"stop_id":"MRGE","stop_name":"Morges","stop_lat":47.16495172,"stop_lon":-1.47202356,"route_short_name":["47","97"]},{"stop_id":"MRIE","stop_name":"Maurienne","stop_lat":47.27561915,"stop_lon":-1.44246145,"route_short_name":["C7"]},{"stop_id":"MROT","stop_name":"Moulin Rothard","stop_lat":47.19590819,"stop_lon":-1.74115678,"route_short_name":["78"]},{"stop_id":"MRRI","stop_name":"Marri\u00e8re","stop_lat":47.23751111,"stop_lon":-1.52439965,"route_short_name":["11"]},{"stop_id":"MRTE","stop_name":"Marterie","stop_lat":47.17846469,"stop_lon":-1.53136943,"route_short_name":["30","97"]},{"stop_id":"MRZE","stop_name":"Marzilles","stop_lat":47.18274936,"stop_lon":-1.47579961,"route_short_name":["60"]},{"stop_id":"MSHE","stop_name":"Mairie de St-Herblain","stop_lat":47.21156721,"stop_lon":-1.64889206,"route_short_name":["50","91"]},{"stop_id":"MSLL","stop_name":"Marseillaise","stop_lat":47.20734188,"stop_lon":-1.59094994,"route_short_name":["11"]},{"stop_id":"MSOR","stop_name":"Mairie des Sorini\u00e8res","stop_lat":47.14916207,"stop_lon":-1.53229012,"route_short_name":["C4"]},{"stop_id":"MSSI","stop_name":"Mississipi","stop_lat":47.23716387,"stop_lon":-1.60914177,"route_short_name":["89"]},{"stop_id":"MTEI","stop_name":"Monteil","stop_lat":47.21388459,"stop_lon":-1.54939544,"route_short_name":["C2","C3","54"]},{"stop_id":"MTLI","stop_name":"Martelli\u00e8re","stop_lat":47.1991668,"stop_lon":-1.52639054,"route_short_name":["27","28"]},{"stop_id":"MTRA","stop_name":"Mortrais","stop_lat":47.1283782,"stop_lon":-1.61644107,"route_short_name":["98"]},{"stop_id":"MUNN","stop_name":"Moulin","stop_lat":47.19756669,"stop_lon":-1.65158931,"route_short_name":["NBI"]},{"stop_id":"MVAN","stop_name":"Mortier Vannerie","stop_lat":47.18016469,"stop_lon":-1.49939264,"route_short_name":["28"]},{"stop_id":"MVSI","stop_name":"Mauvoisins","stop_lat":47.19027625,"stop_lon":-1.5256168,"route_short_name":["4"]},{"stop_id":"NATL","stop_name":"A\u00e9roport","stop_lat":47.15789963,"stop_lon":-1.60132141,"route_short_name":["38","NA"]},{"stop_id":"NBEL","stop_name":"Nouveau B\u00eale","stop_lat":47.26897277,"stop_lon":-1.50192926,"route_short_name":["95"]},{"stop_id":"NBLA","stop_name":"No\u00e9 Blanche","stop_lat":47.25654693,"stop_lon":-1.50725445,"route_short_name":["85"]},{"stop_id":"NCTE","stop_name":"No\u00e9 Cott\u00e9e","stop_lat":47.19409498,"stop_lon":-1.47858966,"route_short_name":["C9"]},{"stop_id":"NDRE","stop_name":"Naudi\u00e8res","stop_lat":47.17306305,"stop_lon":-1.53665872,"route_short_name":["30"]},{"stop_id":"NETR","stop_name":"Neustrie","stop_lat":47.17591416,"stop_lon":-1.59339984,"route_short_name":["2","3","36","40","78","88","98"]},{"stop_id":"NIAG","stop_name":"Niagara","stop_lat":47.30600333,"stop_lon":-1.49333602,"route_short_name":["85"]},{"stop_id":"NILL","stop_name":"Nil","stop_lat":47.24178194,"stop_lon":-1.60842447,"route_short_name":["54","59","89"]},{"stop_id":"NIZA","stop_name":"Nizan","stop_lat":47.20574949,"stop_lon":-1.55025846,"route_short_name":["5"]},{"stop_id":"NLBR","stop_name":"No\u00eb Lambert","stop_lat":47.23007878,"stop_lon":-1.52849088,"route_short_name":["10"]},{"stop_id":"NLLA","stop_name":"No\u00eb Allais","stop_lat":47.22036251,"stop_lon":-1.68868129,"route_short_name":["71"]},{"stop_id":"NOAH","stop_name":"No\u00eb St Jean","stop_lat":47.21918582,"stop_lon":-1.73499847,"route_short_name":["71"]},{"stop_id":"NOHH","stop_name":"North'House","stop_lat":47.19578229,"stop_lon":-1.57331972,"route_short_name":["30"]},{"stop_id":"NONO","stop_name":"No\u00eb Nozou","stop_lat":47.13019092,"stop_lon":-1.63703222,"route_short_name":["98"]},{"stop_id":"NOSH","stop_name":"No\u00eblles","stop_lat":47.24021028,"stop_lon":-1.60434094,"route_short_name":["54","59"]},{"stop_id":"NRCA","stop_name":"No\u00eb Rocard","stop_lat":47.16334738,"stop_lon":-1.49052893,"route_short_name":["47"]},{"stop_id":"NRDA","stop_name":"Neruda","stop_lat":47.21772527,"stop_lon":-1.61392135,"route_short_name":["1","23","59"]},{"stop_id":"OCAN","stop_name":"Oc\u00e9ane","stop_lat":47.22750698,"stop_lon":-1.63593175,"route_short_name":["50","93"]},{"stop_id":"OCEA","stop_name":"Cou\u00ebron Oc\u00e9an","stop_lat":47.21345289,"stop_lon":-1.73918909,"route_short_name":["71","91","E1"]},{"stop_id":"OCOR","stop_name":"Ouche Cormier","stop_lat":47.26466582,"stop_lon":-1.62400648,"route_short_name":["89"]},{"stop_id":"ODLA","stop_name":"Ouche des landes","stop_lat":47.19503341,"stop_lon":-1.48288475,"route_short_name":["C9"]},{"stop_id":"ODNE","stop_name":"Ordronneau","stop_lat":47.19383736,"stop_lon":-1.5748954,"route_short_name":["36","97"]},{"stop_id":"OGVA","stop_name":"Orvault Grand Val","stop_lat":47.26297286,"stop_lon":-1.59450834,"route_short_name":["2","50","79","89"]},{"stop_id":"OLIV","stop_name":"Olivier","stop_lat":47.21747321,"stop_lon":-1.72482036,"route_short_name":["71"]},{"stop_id":"OLVE","stop_name":"Oliveraie","stop_lat":47.18855867,"stop_lon":-1.53117399,"route_short_name":["42"]},{"stop_id":"OLYM","stop_name":"Olympe de Gouges","stop_lat":47.30897242,"stop_lon":-1.54466143,"route_short_name":["86"]},{"stop_id":"OMRL","stop_name":"Orvault Morli\u00e8re","stop_lat":47.24700707,"stop_lon":-1.6031224,"route_short_name":["3","50","69","89"]},{"stop_id":"ONCH","stop_name":"Onch\u00e8res","stop_lat":47.20267245,"stop_lon":-1.46704343,"route_short_name":["60"]},{"stop_id":"OQNE","stop_name":"Ouche Quinet","stop_lat":47.19603056,"stop_lon":-1.50436169,"route_short_name":["28"]},{"stop_id":"ORVA","stop_name":"Orvault","stop_lat":47.27869769,"stop_lon":-1.64026681,"route_short_name":["79"]},{"stop_id":"OTAG","stop_name":"50 Otages","stop_lat":47.21971293,"stop_lon":-1.55550331,"route_short_name":["2","C2","12","23"]},{"stop_id":"PABO","stop_name":"Paix","stop_lat":47.18243694,"stop_lon":-1.59229338,"route_short_name":["36"]},{"stop_id":"PACQ","stop_name":"Parc","stop_lat":47.27263229,"stop_lon":-1.48393143,"route_short_name":["85"]},{"stop_id":"PAEB","stop_name":"Pabl\u00e9e","stop_lat":47.21576063,"stop_lon":-1.74015814,"route_short_name":["71"]},{"stop_id":"PAJO","stop_name":"Petit Anjou","stop_lat":47.20574746,"stop_lon":-1.50466267,"route_short_name":["30"]},{"stop_id":"PALL","stop_name":"Pont Allard","stop_lat":47.19655292,"stop_lon":-1.66627488,"route_short_name":["81","NBI"]},{"stop_id":"PAMI","stop_name":"Palmiers","stop_lat":47.19011839,"stop_lon":-1.53300429,"route_short_name":["42"]},{"stop_id":"PAON","stop_name":"Papillons","stop_lat":47.14680985,"stop_lon":-1.51918269,"route_short_name":["C4"]},{"stop_id":"PAPO","stop_name":"Parc Potager","stop_lat":47.23612655,"stop_lon":-1.52271286,"route_short_name":["11"]},{"stop_id":"PATR","stop_name":"P\u00e2tis Rondin","stop_lat":47.24795511,"stop_lon":-1.51642433,"route_short_name":["11"]},{"stop_id":"PB1B","stop_name":"Parc de la Bouvre","stop_lat":47.17610474,"stop_lon":-1.61415268,"route_short_name":["36","78","88"]},{"stop_id":"PBAI","stop_name":"Parc Bel Air","stop_lat":47.17846266,"stop_lon":-1.47470184,"route_short_name":["60"]},{"stop_id":"PBFF","stop_name":"Paimboeuf","stop_lat":47.1766516,"stop_lon":-1.61921271,"route_short_name":["78","88"]},{"stop_id":"PBLE","stop_name":"P\u00e2tis Br\u00fbl\u00e9","stop_lat":47.19926705,"stop_lon":-1.50723684,"route_short_name":["27","30"]},{"stop_id":"PBNV","stop_name":"Port Boyer Navibus","stop_lat":47.24210322,"stop_lon":-1.54589148,"route_short_name":["N3"]},{"stop_id":"PBOT","stop_name":"Poulbot","stop_lat":47.21329698,"stop_lon":-1.64835997,"route_short_name":["50","91"]},{"stop_id":"PBRE","stop_name":"Petit Breton","stop_lat":47.21320386,"stop_lon":-1.59865045,"route_short_name":["11"]},{"stop_id":"PBYE","stop_name":"Port Boyer","stop_lat":47.24108061,"stop_lon":-1.538808,"route_short_name":["23"]},{"stop_id":"PCBI","stop_name":"Picabia","stop_lat":47.25457197,"stop_lon":-1.57669333,"route_short_name":["59"]},{"stop_id":"PCDI","stop_name":"Picaudi\u00e8re","stop_lat":47.27970844,"stop_lon":-1.48509905,"route_short_name":["85"]},{"stop_id":"PCHA","stop_name":"Portechaise","stop_lat":47.20061763,"stop_lon":-1.52609882,"route_short_name":["C9"]},{"stop_id":"PCLO","stop_name":"Petit Clos","stop_lat":47.20530198,"stop_lon":-1.50991704,"route_short_name":["C9"]},{"stop_id":"PCNN","stop_name":"Planchonnais","stop_lat":47.25356803,"stop_lon":-1.47489712,"route_short_name":["C7"]},{"stop_id":"PCPE","stop_name":"Porte de La Chapelle","stop_lat":47.25937477,"stop_lon":-1.55720037,"route_short_name":["50","66","75","80","86","E5"]},{"stop_id":"PCRE","stop_name":"Poincar\u00e9","stop_lat":47.2228489,"stop_lon":-1.58521365,"route_short_name":["C3","C6","10"]},{"stop_id":"PCSI","stop_name":"Petite Censive","stop_lat":47.26050778,"stop_lon":-1.56098728,"route_short_name":["50"]},{"stop_id":"PCTI","stop_name":"Petit Chantilly","stop_lat":47.25456313,"stop_lon":-1.60076891,"route_short_name":["79"]},{"stop_id":"PCVO","stop_name":"Pontecorvo","stop_lat":47.246064,"stop_lon":-1.53255611,"route_short_name":["C6"]},{"stop_id":"PCZI","stop_name":"Pont de Ch\u00e9zine","stop_lat":47.23806578,"stop_lon":-1.61436599,"route_short_name":["59"]},{"stop_id":"PDAN","stop_name":"Pas d'Ane","stop_lat":47.18204264,"stop_lon":-1.46993696,"route_short_name":["42"]},{"stop_id":"PDCE","stop_name":"Pont du Cens","stop_lat":47.24861094,"stop_lon":-1.57718294,"route_short_name":["C2","C20","59"]},{"stop_id":"PDOU","stop_name":"Porte Douillard","stop_lat":47.28949512,"stop_lon":-1.51849354,"route_short_name":["75"]},{"stop_id":"PDUC","stop_name":"Prairie au Duc 1","stop_lat":47.20428445,"stop_lon":-1.56429318,"route_short_name":["5"]},{"stop_id":"PEDR","stop_name":"Perdriaux","stop_lat":47.16125428,"stop_lon":-1.48575767,"route_short_name":["47"]},{"stop_id":"PEGE","stop_name":"P\u00e9gers","stop_lat":47.13758868,"stop_lon":-1.47153044,"route_short_name":["47"]},{"stop_id":"PELO","stop_name":"Pelousi\u00e8re","stop_lat":47.20775876,"stop_lon":-1.64702227,"route_short_name":["81"]},{"stop_id":"PEON","stop_name":"Perron","stop_lat":47.22489224,"stop_lon":-1.60189022,"route_short_name":["C6"]},{"stop_id":"PERR","stop_name":"Perray","stop_lat":47.24753061,"stop_lon":-1.5129549,"route_short_name":["11","12"]},{"stop_id":"PETR","stop_name":"P\u00e9trels","stop_lat":47.25430074,"stop_lon":-1.50709295,"route_short_name":["80"]},{"stop_id":"PFNA","stop_name":"Purfina","stop_lat":47.194575,"stop_lon":-1.63494095,"route_short_name":["81"]},{"stop_id":"PGRI","stop_name":"Pagerie","stop_lat":47.17872222,"stop_lon":-1.65318427,"route_short_name":["78"]},{"stop_id":"PGTI","stop_name":"Plingueti\u00e8re","stop_lat":47.13362595,"stop_lon":-1.61313247,"route_short_name":["98"]},{"stop_id":"PHTR","stop_name":"Parc Chantrerie","stop_lat":47.28617242,"stop_lon":-1.52090098,"route_short_name":["75"]},{"stop_id":"PHVE","stop_name":"Pr\u00e9 Herv\u00e9","stop_lat":47.24412862,"stop_lon":-1.51773567,"route_short_name":["11"]},{"stop_id":"PIAO","stop_name":"Piano'cktail","stop_lat":47.17483933,"stop_lon":-1.60639797,"route_short_name":["36","78","88"]},{"stop_id":"PIBL","stop_name":"Pierre Blanche","stop_lat":47.17205368,"stop_lon":-1.62719445,"route_short_name":["36"]},{"stop_id":"PIPA","stop_name":"Pipay","stop_lat":47.22554605,"stop_lon":-1.5374181,"route_short_name":["11","12"]},{"stop_id":"PIRM","stop_name":"Pirmil","stop_lat":47.19609738,"stop_lon":-1.54268626,"route_short_name":["2","3","C4","C9","27","28","36","38","42","E8"]},{"stop_id":"PISE","stop_name":"Pin Sec","stop_lat":47.24340102,"stop_lon":-1.51794774,"route_short_name":["1","11"]},{"stop_id":"PJOU","stop_name":"Point du Jour","stop_lat":47.26495622,"stop_lon":-1.4435598,"route_short_name":["C7","77"]},{"stop_id":"PLAC","stop_name":"Placis","stop_lat":47.19964834,"stop_lon":-1.5200823,"route_short_name":["27","28"]},{"stop_id":"PLAE","stop_name":"Planche Etienne","stop_lat":47.16590439,"stop_lon":-1.62528649,"route_short_name":["88"]},{"stop_id":"PLBL","stop_name":"Port la Blanche","stop_lat":47.27163335,"stop_lon":-1.51667583,"route_short_name":["75"]},{"stop_id":"PLCL","stop_name":"Polyclinique","stop_lat":47.2279814,"stop_lon":-1.61163773,"route_short_name":["C6","59"]},{"stop_id":"PLES","stop_name":"Plessis","stop_lat":47.30114993,"stop_lon":-1.55230174,"route_short_name":["86"]},{"stop_id":"PLGU","stop_name":"Pouliguen","stop_lat":47.23940682,"stop_lon":-1.5430508,"route_short_name":["23"]},{"stop_id":"PLNA","stop_name":"Port launay","stop_lat":47.20968794,"stop_lon":-1.74630488,"route_short_name":["71"]},{"stop_id":"PLOR","stop_name":"Ploreau","stop_lat":47.30314874,"stop_lon":-1.55178525,"route_short_name":["86"]},{"stop_id":"PLPC","stop_name":"Place des P\u00eacheurs","stop_lat":47.13641378,"stop_lon":-1.66798594,"route_short_name":["98"]},{"stop_id":"PLSS","stop_name":"Plessis","stop_lat":47.26035939,"stop_lon":-1.66007149,"route_short_name":["69"]},{"stop_id":"PLTI","stop_name":"Plati\u00e8re","stop_lat":47.19448617,"stop_lon":-1.56106845,"route_short_name":["36"]},{"stop_id":"PMAR","stop_name":"Pont Marchand","stop_lat":47.2606249,"stop_lon":-1.63151308,"route_short_name":["89"]},{"stop_id":"PMEU","stop_name":"Port aux Meules","stop_lat":47.16542495,"stop_lon":-1.49305446,"route_short_name":["97"]},{"stop_id":"PMTR","stop_name":"Pont de la M\u00e9tairie","stop_lat":47.26234953,"stop_lon":-1.44615364,"route_short_name":["C7","77","87"]},{"stop_id":"PMVE","stop_name":"Prairie de Mauves","stop_lat":47.2200318,"stop_lon":-1.51652833,"route_short_name":["C3"]},{"stop_id":"PNRZ","stop_name":"Pinier","stop_lat":47.18159748,"stop_lon":-1.54533445,"route_short_name":["C4"]},{"stop_id":"PNTI","stop_name":"Plantiveau","stop_lat":47.24659073,"stop_lon":-1.51143236,"route_short_name":["12"]},{"stop_id":"POIT","stop_name":"Poitou","stop_lat":47.22406831,"stop_lon":-1.56520707,"route_short_name":["3"]},{"stop_id":"POLE","stop_name":"Poulenc","stop_lat":47.25549776,"stop_lon":-1.58125891,"route_short_name":["59"]},{"stop_id":"POMM","stop_name":"Pommeraie","stop_lat":47.14573609,"stop_lon":-1.69508811,"route_short_name":["88","98"]},{"stop_id":"PONT","stop_name":"Pontereau","stop_lat":47.30641291,"stop_lon":-1.37883711,"route_short_name":["67"]},{"stop_id":"POON","stop_name":"Potiron","stop_lat":47.27039478,"stop_lon":-1.51870365,"route_short_name":["75"]},{"stop_id":"POST","stop_name":"Poste","stop_lat":47.29523442,"stop_lon":-1.55412164,"route_short_name":["86","96"]},{"stop_id":"POTT","stop_name":"Pottier","stop_lat":47.17763302,"stop_lon":-1.62734333,"route_short_name":["36","78"]},{"stop_id":"POYA","stop_name":"Poyaux","stop_lat":47.16658699,"stop_lon":-1.53103977,"route_short_name":["33"]},{"stop_id":"PPDO","stop_name":"Pompidou","stop_lat":47.20918997,"stop_lon":-1.52830369,"route_short_name":["5","26"]},{"stop_id":"PPFA","stop_name":"Petit Port","stop_lat":47.24370612,"stop_lon":-1.55711745,"route_short_name":["C20","26"]},{"stop_id":"PPLI","stop_name":"Peupliers","stop_lat":47.19956367,"stop_lon":-1.49562949,"route_short_name":["27"]},{"stop_id":"PPOU","stop_name":"Pr\u00e9 Poulain","stop_lat":47.27248637,"stop_lon":-1.44462168,"route_short_name":["C7","77"]},{"stop_id":"PPSI","stop_name":"Petit Plessis","stop_lat":47.30185314,"stop_lon":-1.3861984,"route_short_name":["67"]},{"stop_id":"PPTR","stop_name":"Papoti\u00e8re","stop_lat":47.24014265,"stop_lon":-1.49681824,"route_short_name":["87"]},{"stop_id":"PPUN","stop_name":"Petit Port-Facult\u00e9s","stop_lat":47.2431325,"stop_lon":-1.54742102,"route_short_name":["N3"]},{"stop_id":"PRCE","stop_name":"Proc\u00e9","stop_lat":47.2225163,"stop_lon":-1.58175188,"route_short_name":["C3","C6"]},{"stop_id":"PRDI","stop_name":"Praudi\u00e8re","stop_lat":47.25685006,"stop_lon":-1.58387156,"route_short_name":["59"]},{"stop_id":"PREU","stop_name":"Preux","stop_lat":47.22119804,"stop_lon":-1.61245913,"route_short_name":["59"]},{"stop_id":"PRFO","stop_name":"Profondine","stop_lat":47.19610763,"stop_lon":-1.48851103,"route_short_name":["C9"]},{"stop_id":"PRGE","stop_name":"Portail Rouge","stop_lat":47.24392237,"stop_lon":-1.5050244,"route_short_name":["C7","87"]},{"stop_id":"PRHE","stop_name":"Petit Rocher","stop_lat":47.24055373,"stop_lon":-1.47899478,"route_short_name":["80"]},{"stop_id":"PRIM","stop_name":"Primev\u00e8res","stop_lat":47.2248762,"stop_lon":-1.67288995,"route_short_name":["71"]},{"stop_id":"PRMI","stop_name":"Pyramide","stop_lat":47.20803366,"stop_lon":-1.49279982,"route_short_name":["C9","30"]},